name,longitude,latitude,date,origin,source,class_confidence,ground_truth_location
Silver Spring,-77.030053,38.992887,12-11-23 18:43:23,osm,https://www.openstreetmap.org/node/49135583,0.7,None
Silver Spring,-77.030182,38.99267,12-11-23 18:43:23,osm,https://www.openstreetmap.org/node/49293809,0.7,None
14th St NW & Belmont St NW,-77.031865,38.920998,12-11-23 18:43:23,osm,https://www.openstreetmap.org/node/49745280,0.7,None
Shepherd Junction,-76.960178,38.886347,12-11-23 18:43:23,osm,https://www.openstreetmap.org/node/49792620,0.7,None
College Park,-76.928772,38.977942,12-11-23 18:43:23,osm,https://www.openstreetmap.org/node/50706773,0.7,None
Cafe Saint Ex,-77.031701,38.915421,12-11-23 18:43:23,osm,https://www.openstreetmap.org/node/60471261,0.7,None
D.C.-MD-VA Southern Tripoint,-77.038936,38.79163,12-11-23 18:43:23,osm,https://www.openstreetmap.org/node/75405465,0.7,None
Washington Union Station,-77.00573,38.898914,12-11-23 18:43:23,osm,https://www.openstreetmap.org/node/91294223,0.7,None
Hume,-77.059146,38.831226,12-11-23 18:43:23,osm,https://www.openstreetmap.org/node/157544411,0.7,None
Cannon,-77.097479,38.79428,12-11-23 18:43:23,osm,https://www.openstreetmap.org/node/157545041,0.7,None
Blair Circle,-77.036317,38.992268,12-11-23 18:43:23,osm,https://www.openstreetmap.org/node/157545628,0.7,None
Chevy Chase Village,-77.077607,38.970756,12-11-23 18:43:23,osm,https://www.openstreetmap.org/node/157554458,0.7,None
Battery Park,-77.103528,38.988302,12-11-23 18:43:23,osm,https://www.openstreetmap.org/node/157555848,0.7,None
Somerset Heights,-77.0947,38.968999,12-11-23 18:43:23,osm,https://www.openstreetmap.org/node/157556542,0.7,None
Douglas Park,-77.095416,38.854471,12-11-23 18:43:23,osm,https://www.openstreetmap.org/node/157558609,0.7,None
Bloomingdale,-77.011365,38.916778,12-11-23 18:43:23,osm,https://www.openstreetmap.org/node/157560663,0.7,None
Bradley Hills,-77.107756,38.979832,12-11-23 18:43:23,osm,https://www.openstreetmap.org/node/157562428,0.7,None
Kingman Park,-76.974903,38.898004,12-11-23 18:43:23,osm,https://www.openstreetmap.org/node/157562916,0.7,None
Lynhaven,-77.057021,38.835868,12-11-23 18:43:23,osm,https://www.openstreetmap.org/node/157563389,0.7,None
Rock Creek Forest,-77.056329,38.99062,12-11-23 18:43:23,osm,https://www.openstreetmap.org/node/157570607,0.7,None
Braddock Heights,-77.077202,38.830671,12-11-23 18:43:23,osm,https://www.openstreetmap.org/node/157572971,0.7,None
Glenwood,-77.107201,38.995666,12-11-23 18:43:23,osm,https://www.openstreetmap.org/node/157576071,0.7,None
Fort Ward Heights,-77.108034,38.835946,12-11-23 18:43:23,osm,https://www.openstreetmap.org/node/157583632,0.7,None
Green Manor,-76.932474,38.958722,12-11-23 18:43:23,osm,https://www.openstreetmap.org/node/157583916,0.7,None
Forest Hills,-77.058033,38.950944,12-11-23 18:43:23,osm,https://www.openstreetmap.org/node/157590304,0.7,None
Wesley Heights,-77.088034,38.931222,12-11-23 18:43:23,osm,https://www.openstreetmap.org/node/157591605,0.7,None
Takoma Park,-77.007476,38.977888,12-11-23 18:43:23,osm,https://www.openstreetmap.org/node/157592974,0.7,None
Martin's Additions,-77.06942,38.981257,12-11-23 18:43:23,osm,https://www.openstreetmap.org/node/157593017,0.7,None
Governors Grove,-77.090556,38.793333,12-11-23 18:43:23,osm,https://www.openstreetmap.org/node/157593286,0.7,None
Wakefield,-77.107201,38.811502,12-11-23 18:43:23,osm,https://www.openstreetmap.org/node/157593964,0.7,None
Hyattsville Hills,-76.951086,38.960666,12-11-23 18:43:23,osm,https://www.openstreetmap.org/node/157595036,0.7,None
Lanier Heights,-77.039977,38.9265,12-11-23 18:43:23,osm,https://www.openstreetmap.org/node/157596835,0.7,None
Brad Lee,-77.094423,38.830391,12-11-23 18:43:23,osm,https://www.openstreetmap.org/node/157597731,0.7,None
Braddock,-77.068035,38.820949,12-11-23 18:43:23,osm,https://www.openstreetmap.org/node/157598465,0.7,None
Jefferson Park,-77.073036,38.827615,12-11-23 18:43:23,osm,https://www.openstreetmap.org/node/157599097,0.7,None
Delta,-77.09609,38.812058,12-11-23 18:43:23,osm,https://www.openstreetmap.org/node/157599110,0.7,None
Brandon Village,-77.115812,38.875668,12-11-23 18:43:23,osm,https://www.openstreetmap.org/node/157599174,0.7,None
North Avondale,-76.97942,38.955111,12-11-23 18:43:23,osm,https://www.openstreetmap.org/node/157599286,0.7,None
Lincoln Heights,-76.928863,38.894556,12-11-23 18:43:23,osm,https://www.openstreetmap.org/node/157599737,0.7,None
Hillcrest Heights,-76.959419,38.832891,12-11-23 18:43:23,osm,https://www.openstreetmap.org/node/157600854,0.7,None
Westboro,-77.090844,38.988982,12-11-23 18:43:23,osm,https://www.openstreetmap.org/node/157600880,0.7,None
Chinquapin Village,-77.080019,38.816179,12-11-23 18:43:23,osm,https://www.openstreetmap.org/node/157603170,0.7,None
Temple Hills Park,-76.944141,38.809558,12-11-23 18:43:23,osm,https://www.openstreetmap.org/node/157608180,0.7,None
Columbia Heights,-77.029429,38.925672,12-11-23 18:43:23,osm,https://www.openstreetmap.org/node/157610884,0.7,None
Ivy City,-76.986934,38.912067,12-11-23 18:43:23,osm,https://www.openstreetmap.org/node/157610971,0.7,None
Rosemont,-77.061644,38.812891,12-11-23 18:43:23,osm,https://www.openstreetmap.org/node/157611999,0.7,None
Buena Vista,-76.96868,38.856653,12-11-23 18:43:23,osm,https://www.openstreetmap.org/node/157618698,0.7,None
Barcroft,-77.108202,38.861393,12-11-23 18:43:23,osm,https://www.openstreetmap.org/node/157621361,0.7,None
Anacostia,-76.984253,38.865442,12-11-23 18:43:23,osm,https://www.openstreetmap.org/node/157621768,0.7,None
Foxhall Crescent,-77.0922,38.923167,12-11-23 18:43:23,osm,https://www.openstreetmap.org/node/157623373,0.7,None
Avondale,-76.975253,38.948722,12-11-23 18:43:23,osm,https://www.openstreetmap.org/node/157623468,0.7,None
Dillon Park,-76.937286,38.865893,12-11-23 18:43:23,osm,https://www.openstreetmap.org/node/157623493,0.7,None
Southwest Waterfront,-77.022177,38.879038,12-11-23 18:43:23,osm,https://www.openstreetmap.org/node/157624066,0.7,None
North Cleveland Park,-77.070533,38.950111,12-11-23 18:43:23,osm,https://www.openstreetmap.org/node/157624802,0.7,None
Riverdale Park,-76.929652,38.96151,12-11-23 18:43:23,osm,https://www.openstreetmap.org/node/157625795,0.7,None
Rollingwood,-77.068589,38.983443,12-11-23 18:43:23,osm,https://www.openstreetmap.org/node/157626012,0.7,None
American University Park,-77.089978,38.9515,12-11-23 18:43:23,osm,https://www.openstreetmap.org/node/157633177,0.7,None
Lincoln Park,-76.989617,38.889447,12-11-23 18:43:23,osm,https://www.openstreetmap.org/node/157634410,0.7,None
Westgate,-77.101923,38.955111,12-11-23 18:43:23,osm,https://www.openstreetmap.org/node/157636530,0.7,None
Douglass,-76.977753,38.848446,12-11-23 18:43:23,osm,https://www.openstreetmap.org/node/157636686,0.7,None
Lyon Village,-77.096535,38.892982,12-11-23 18:43:23,osm,https://www.openstreetmap.org/node/157640622,0.7,None
Greenwich Forest,-77.111353,38.989588,12-11-23 18:43:23,osm,https://www.openstreetmap.org/node/158225899,0.7,None
Pagett's Corner,-76.928307,38.793169,12-11-23 18:43:23,osm,https://www.openstreetmap.org/node/158226554,0.7,None
Cleveland Park,-77.058707,38.935231,12-11-23 18:43:23,osm,https://www.openstreetmap.org/node/158227512,0.7,None
Barnaby Manor Oaks,-76.967753,38.818169,12-11-23 18:43:23,osm,https://www.openstreetmap.org/node/158233749,0.7,None
Battery Lane,-77.101353,38.992453,12-11-23 18:43:23,osm,https://www.openstreetmap.org/node/158235716,0.7,None
Trinidad,-76.98442,38.905667,12-11-23 18:43:23,osm,https://www.openstreetmap.org/node/158237080,0.7,None
Huntington,-77.070571,38.79401,12-11-23 18:43:23,osm,https://www.openstreetmap.org/node/158238568,0.7,None
Cameron Valley,-77.086089,38.808169,12-11-23 18:43:23,osm,https://www.openstreetmap.org/node/158239200,0.7,None
Crestwood,-77.040532,38.941778,12-11-23 18:43:23,osm,https://www.openstreetmap.org/node/158239757,0.7,None
Dupont Heights,-76.924418,38.862057,12-11-23 18:43:23,osm,https://www.openstreetmap.org/node/158240819,0.7,None
Riverdale Gardens,-76.913307,38.968722,12-11-23 18:43:23,osm,https://www.openstreetmap.org/node/158241114,0.7,None
Washington Highlands,-76.994698,38.832057,12-11-23 18:43:23,osm,https://www.openstreetmap.org/node/158242731,0.7,None
North Barnaby,-76.954696,38.82178,12-11-23 18:43:23,osm,https://www.openstreetmap.org/node/158242943,0.7,None
South Lawn,-76.99192,38.792892,12-11-23 18:43:23,osm,https://www.openstreetmap.org/node/158242974,0.7,None
Bethesda,-77.094245,38.984682,12-11-23 18:43:23,osm,https://www.openstreetmap.org/node/158248181,0.7,None
Georgetown,-77.062785,38.905199,12-11-23 18:43:23,osm,https://www.openstreetmap.org/node/158249984,0.7,None
College Heights,-76.94053,38.975944,12-11-23 18:43:23,osm,https://www.openstreetmap.org/node/158250042,0.7,None
Bellevue,-77.010317,38.826532,12-11-23 18:43:23,osm,https://www.openstreetmap.org/node/158250162,0.7,None
Barnaby Woods,-77.0597,38.974833,12-11-23 18:43:23,osm,https://www.openstreetmap.org/node/158252218,0.7,None
Oxon Run Hills,-76.961641,38.844002,12-11-23 18:43:23,osm,https://www.openstreetmap.org/node/158252929,0.7,None
Tenleytown,-77.080274,38.948904,12-11-23 18:43:23,osm,https://www.openstreetmap.org/node/158259609,0.7,None
Westmoreland Hills,-77.105557,38.950967,12-11-23 18:43:23,osm,https://www.openstreetmap.org/node/158261210,0.7,None
College Park,-77.082756,38.811502,12-11-23 18:43:23,osm,https://www.openstreetmap.org/node/158261775,0.7,None
Parkfairfax,-77.079425,38.83706,12-11-23 18:43:23,osm,https://www.openstreetmap.org/node/158262143,0.7,None
Ellaville,-76.94303,38.959277,12-11-23 18:43:23,osm,https://www.openstreetmap.org/node/158267440,0.7,None
Bladensburg,-76.933798,38.9393,12-11-23 18:43:23,osm,https://www.openstreetmap.org/node/158267497,0.7,None
Mount Ida,-77.065813,38.830115,12-11-23 18:43:23,osm,https://www.openstreetmap.org/node/158268674,0.7,None
Addison Heights,-77.060255,38.855668,12-11-23 18:43:23,osm,https://www.openstreetmap.org/node/158269692,0.7,None
High Point,-77.118453,38.964028,12-11-23 18:43:23,osm,https://www.openstreetmap.org/node/158270507,0.7,None
Arnold Heights,-76.936363,38.853724,12-11-23 18:43:23,osm,https://www.openstreetmap.org/node/158273358,0.7,None
Woodley Park,-77.052838,38.925173,12-11-23 18:43:23,osm,https://www.openstreetmap.org/node/158273399,0.7,None
Edmonston,-76.931677,38.947117,12-11-23 18:43:23,osm,https://www.openstreetmap.org/node/158277716,0.7,None
Mount Rainier,-76.959698,38.936485,12-11-23 18:43:23,osm,https://www.openstreetmap.org/node/158277755,0.7,None
Rock Creek Gardens,-77.046922,38.993166,12-11-23 18:43:23,osm,https://www.openstreetmap.org/node/158280078,0.7,None
Duke Gardens,-77.099423,38.810669,12-11-23 18:43:23,osm,https://www.openstreetmap.org/node/158281211,0.7,None
Colonial Village,-77.041705,38.987016,12-11-23 18:43:23,osm,https://www.openstreetmap.org/node/158284466,0.7,None
Glover Park,-77.0772,38.920945,12-11-23 18:43:23,osm,https://www.openstreetmap.org/node/158284531,0.7,None
Dunlop's Hills,-77.066644,38.99011,12-11-23 18:43:23,osm,https://www.openstreetmap.org/node/158284602,0.7,None
Dalecrest,-77.10359,38.814557,12-11-23 18:43:23,osm,https://www.openstreetmap.org/node/158285354,0.7,None
Rosslyn,-77.072478,38.896778,12-11-23 18:43:23,osm,https://www.openstreetmap.org/node/158286062,0.7,None
Adams Morgan,-77.042199,38.9215,12-11-23 18:43:23,osm,https://www.openstreetmap.org/node/158286707,0.7,None
West Chevy Chase Heights,-77.0872,38.99261,12-11-23 18:43:23,osm,https://www.openstreetmap.org/node/158286819,0.7,None
Silver Hill,-76.945808,38.84178,12-11-23 18:43:23,osm,https://www.openstreetmap.org/node/158287897,0.7,None
Tuxedo,-76.921747,38.918658,12-11-23 18:43:23,osm,https://www.openstreetmap.org/node/158299548,0.7,None
The Hamlet,-77.073589,38.986777,12-11-23 18:43:23,osm,https://www.openstreetmap.org/node/158300756,0.7,None
Twining,-76.961591,38.876576,12-11-23 18:43:23,osm,https://www.openstreetmap.org/node/158302193,0.7,None
Browns Corner,-76.992754,38.993999,12-11-23 18:43:23,osm,https://www.openstreetmap.org/node/158305119,0.7,None
Arlington Forest,-77.114586,38.869925,12-11-23 18:43:23,osm,https://www.openstreetmap.org/node/158306532,0.7,None
Glen Mar Park,-77.118868,38.957888,12-11-23 18:43:23,osm,https://www.openstreetmap.org/node/158308449,0.7,None
Kenwood,-77.10536,38.970857,12-11-23 18:43:23,osm,https://www.openstreetmap.org/node/158308471,0.7,None
Brookside Manor,-76.976365,38.964833,12-11-23 18:43:23,osm,https://www.openstreetmap.org/node/158308756,0.7,None
Fort Lincoln,-76.956364,38.922334,12-11-23 18:43:23,osm,https://www.openstreetmap.org/node/158315461,0.7,None
The Palisades,-77.101367,38.925111,12-11-23 18:43:23,osm,https://www.openstreetmap.org/node/158316896,0.7,None
Cheverly,-76.915807,38.928167,12-11-23 18:43:23,osm,https://www.openstreetmap.org/node/158318936,0.7,None
Shaw,-77.021365,38.912056,12-11-23 18:43:23,osm,https://www.openstreetmap.org/node/158320241,0.7,None
Villa Heights,-76.918585,38.937333,12-11-23 18:43:23,osm,https://www.openstreetmap.org/node/158320273,0.7,None
Rosedale Park,-77.091367,38.991499,12-11-23 18:43:23,osm,https://www.openstreetmap.org/node/158323428,0.7,None
Shirley Duke,-77.109145,38.815391,12-11-23 18:43:23,osm,https://www.openstreetmap.org/node/158323944,0.7,None
Chillum Heights,-76.981365,38.959833,12-11-23 18:43:23,osm,https://www.openstreetmap.org/node/158326473,0.7,None
Riverdale Heights,-76.91505,38.963834,12-11-23 18:43:23,osm,https://www.openstreetmap.org/node/158329846,0.7,None
Westwood,-77.108589,38.966222,12-11-23 18:43:23,osm,https://www.openstreetmap.org/node/158329952,0.7,None
Marlow Heights,-76.949881,38.823484,12-11-23 18:43:23,osm,https://www.openstreetmap.org/node/158333615,0.7,None
Shepherd Park,-77.031799,38.979743,12-11-23 18:43:23,osm,https://www.openstreetmap.org/node/158337811,0.7,None
Chevy Chase Section Three,-77.073832,38.979068,12-11-23 18:43:23,osm,https://www.openstreetmap.org/node/158344942,0.7,None
Hyattsville,-76.940865,38.952944,12-11-23 18:43:23,osm,https://www.openstreetmap.org/node/158345898,0.7,None
Chapel Oaks,-76.917751,38.908167,12-11-23 18:43:23,osm,https://www.openstreetmap.org/node/158345943,0.7,None
Benning,-76.950783,38.893547,12-11-23 18:43:23,osm,https://www.openstreetmap.org/node/158346318,0.7,None
Logan Circle,-77.029626,38.909778,12-11-23 18:43:23,osm,https://www.openstreetmap.org/node/158348629,0.7,None
Queens Chapel Manor,-76.961086,38.958722,12-11-23 18:43:23,osm,https://www.openstreetmap.org/node/158348892,0.7,None
Chapel Hill,-77.087758,38.819282,12-11-23 18:43:23,osm,https://www.openstreetmap.org/node/158349639,0.7,None
Suitland Manor,-76.926085,38.853446,12-11-23 18:43:23,osm,https://www.openstreetmap.org/node/158349876,0.7,None
Edgewood,-77.110812,38.993721,12-11-23 18:43:23,osm,https://www.openstreetmap.org/node/158350414,0.7,None
Hillcrest,-76.95803,38.862057,12-11-23 18:43:23,osm,https://www.openstreetmap.org/node/158352237,0.7,None
Sumner,-77.114979,38.955388,12-11-23 18:43:23,osm,https://www.openstreetmap.org/node/158353337,0.7,None
Brentwood,-76.984427,38.92095,12-11-23 18:43:23,osm,https://www.openstreetmap.org/node/158355020,0.7,None
College Park,-76.936919,38.980666,12-11-23 18:43:23,osm,https://www.openstreetmap.org/node/158355126,0.7,None
Sligo Park Hills,-77.010532,38.992055,12-11-23 18:43:23,osm,https://www.openstreetmap.org/node/158360095,0.7,None
Shirlington,-77.090703,38.841008,12-11-23 18:43:23,osm,https://www.openstreetmap.org/node/158362474,0.7,None
Cottage City,-76.951829,38.938203,12-11-23 18:43:23,osm,https://www.openstreetmap.org/node/158366703,0.7,None
Pinehurst Circle,-77.080256,38.971043,12-11-23 18:43:23,osm,https://www.openstreetmap.org/node/158368425,0.7,None
Washington,-77.036543,38.895037,12-11-23 18:43:23,osm,https://www.openstreetmap.org/node/158368533,0.7,None
Warwick Village,-77.064424,38.834282,12-11-23 18:43:23,osm,https://www.openstreetmap.org/node/158372715,0.7,None
Ducat Town,-76.919696,38.954,12-11-23 18:43:23,osm,https://www.openstreetmap.org/node/158373397,0.7,None
Chevy Chase Manor,-77.066644,38.978721,12-11-23 18:43:23,osm,https://www.openstreetmap.org/node/158374677,0.7,None
Broadview,-76.92664,38.812613,12-11-23 18:43:23,osm,https://www.openstreetmap.org/node/158377771,0.7,None
Spring Valley,-77.098867,38.939555,12-11-23 18:43:23,osm,https://www.openstreetmap.org/node/158379347,0.7,None
Gordons Corner,-76.939974,38.832613,12-11-23 18:43:23,osm,https://www.openstreetmap.org/node/158381295,0.7,None
Dupont Park,-76.96397,38.872378,12-11-23 18:43:23,osm,https://www.openstreetmap.org/node/158382189,0.7,None
Glen Cove,-77.0972,38.957333,12-11-23 18:43:23,osm,https://www.openstreetmap.org/node/158382453,0.7,None
University Heights,-76.993587,38.939833,12-11-23 18:43:23,osm,https://www.openstreetmap.org/node/158383652,0.7,None
Woodmont Triangle,-77.097836,38.989071,12-11-23 18:43:23,osm,https://www.openstreetmap.org/node/158384517,0.7,None
Waggaman Heights,-76.942196,38.807058,12-11-23 18:43:23,osm,https://www.openstreetmap.org/node/158385899,0.7,None
North Woodridge,-76.973309,38.945111,12-11-23 18:43:23,osm,https://www.openstreetmap.org/node/158387998,0.7,None
Foxhall Village,-77.084422,38.911778,12-11-23 18:43:23,osm,https://www.openstreetmap.org/node/158388501,0.7,None
Northeast Boundary,-76.913316,38.893872,12-11-23 18:43:23,osm,https://www.openstreetmap.org/node/158393675,0.7,None
Langdon,-76.973864,38.923167,12-11-23 18:43:23,osm,https://www.openstreetmap.org/node/158395657,0.7,None
Truxton Circle,-77.014976,38.909834,12-11-23 18:43:23,osm,https://www.openstreetmap.org/node/158397322,0.7,None
Glassmanor,-76.998587,38.819002,12-11-23 18:43:23,osm,https://www.openstreetmap.org/node/158398172,0.7,None
Fort Dupont,-76.950281,38.884296,12-11-23 18:43:23,osm,https://www.openstreetmap.org/node/158398421,0.7,None
Burgundy Village,-77.087371,38.798679,12-11-23 18:43:23,osm,https://www.openstreetmap.org/node/158399663,0.7,None
Oak Park,-77.089042,38.801029,12-11-23 18:43:23,osm,https://www.openstreetmap.org/node/158404035,0.7,None
Chillum Manor,-76.988031,38.970666,12-11-23 18:43:23,osm,https://www.openstreetmap.org/node/158405947,0.7,None
North Takoma Park,-77.014358,38.988304,12-11-23 18:43:23,osm,https://www.openstreetmap.org/node/158406686,0.7,None
Kilmarock,-76.99831,38.988444,12-11-23 18:43:23,osm,https://www.openstreetmap.org/node/158406888,0.7,None
Yorktown Village,-77.0997,38.952889,12-11-23 18:43:23,osm,https://www.openstreetmap.org/node/158410184,0.7,None
Central Northeast,-76.941058,38.89615,12-11-23 18:43:23,osm,https://www.openstreetmap.org/node/158410582,0.7,None
Clermont Woods,-77.110534,38.797336,12-11-23 18:43:23,osm,https://www.openstreetmap.org/node/158412816,0.7,None
Penn Branch,-76.953486,38.869537,12-11-23 18:43:23,osm,https://www.openstreetmap.org/node/158415619,0.7,None
Naylor Gardens,-76.966299,38.856348,12-11-23 18:43:23,osm,https://www.openstreetmap.org/node/158416046,0.7,None
Gateway,-76.963586,38.920945,12-11-23 18:43:23,osm,https://www.openstreetmap.org/node/158416078,0.7,None
Lewisdale,-76.973864,38.973444,12-11-23 18:43:23,osm,https://www.openstreetmap.org/node/158416135,0.7,None
Manor Park,-77.01581,38.963999,12-11-23 18:43:23,osm,https://www.openstreetmap.org/node/158416678,0.7,None
Langley Park,-76.981011,38.988604,12-11-23 18:43:23,osm,https://www.openstreetmap.org/node/158417615,0.7,None
Drummond,-77.093595,38.970216,12-11-23 18:43:23,osm,https://www.openstreetmap.org/node/158426017,0.7,None
Chinatown,-77.021197,38.900327,12-11-23 18:43:23,osm,https://www.openstreetmap.org/node/158431204,0.7,None
Boulevard Heights,-76.933307,38.869835,12-11-23 18:43:23,osm,https://www.openstreetmap.org/node/158431297,0.7,None
Virginia Highlands,-77.0647,38.858446,12-11-23 18:43:23,osm,https://www.openstreetmap.org/node/158432855,0.7,None
Bradmoor,-77.119145,38.994554,12-11-23 18:43:23,osm,https://www.openstreetmap.org/node/158433816,0.7,None
Randle Highlands,-76.966371,38.870395,12-11-23 18:43:23,osm,https://www.openstreetmap.org/node/158435207,0.7,None
Chevy Chase Terrace,-77.093867,38.972333,12-11-23 18:43:23,osm,https://www.openstreetmap.org/node/158440296,0.7,None
Phelps Corner,-76.973035,38.805559,12-11-23 18:43:23,osm,https://www.openstreetmap.org/node/158446896,0.7,None
Claremont,-77.104701,38.843168,12-11-23 18:43:23,osm,https://www.openstreetmap.org/node/158448193,0.7,None
Alcova Heights,-77.097201,38.864557,12-11-23 18:43:23,osm,https://www.openstreetmap.org/node/158451174,0.7,None
Michigan Park,-76.993576,38.946984,12-11-23 18:43:23,osm,https://www.openstreetmap.org/node/158451242,0.7,None
Hawthorne,-77.0547,38.980388,12-11-23 18:43:23,osm,https://www.openstreetmap.org/node/158454849,0.7,None
Dominion Heights,-77.107756,38.89289,12-11-23 18:43:23,osm,https://www.openstreetmap.org/node/158456074,0.7,None
Brookdale,-77.091645,38.959277,12-11-23 18:43:23,osm,https://www.openstreetmap.org/node/158458586,0.7,None
Michigan Park Hills,-76.983031,38.955389,12-11-23 18:43:23,osm,https://www.openstreetmap.org/node/158458611,0.7,None
North Highlands,-77.083033,38.898167,12-11-23 18:43:23,osm,https://www.openstreetmap.org/node/158459691,0.7,None
Seminary Valley,-77.117479,38.818446,12-11-23 18:43:23,osm,https://www.openstreetmap.org/node/158461528,0.7,None
Woodridge,-76.97108,38.931229,12-11-23 18:43:23,osm,https://www.openstreetmap.org/node/158463627,0.7,None
Park View,-77.021301,38.933469,12-11-23 18:43:23,osm,https://www.openstreetmap.org/node/158464177,0.7,None
Hampshire Knolls,-77.004453,38.961658,12-11-23 18:43:23,osm,https://www.openstreetmap.org/node/158465436,0.7,None
Bradbury Park,-76.92414,38.857891,12-11-23 18:43:23,osm,https://www.openstreetmap.org/node/158467198,0.7,None
Dupont Circle,-77.042726,38.910944,12-11-23 18:43:23,osm,https://www.openstreetmap.org/node/158467370,0.7,None
Congress Heights,-77.000255,38.842897,12-11-23 18:43:23,osm,https://www.openstreetmap.org/node/158472580,0.7,None
Kaywood Gardens,-76.969142,38.943167,12-11-23 18:43:23,osm,https://www.openstreetmap.org/node/158473252,0.7,None
Berwyn,-76.926363,38.99511,12-11-23 18:43:23,osm,https://www.openstreetmap.org/node/158475017,0.7,None
Colmar Manor,-76.95026,38.931503,12-11-23 18:43:23,osm,https://www.openstreetmap.org/node/158475031,0.7,None
Mount Pleasant,-77.038223,38.930912,12-11-23 18:43:23,osm,https://www.openstreetmap.org/node/158476340,0.7,None
LeDroit Park,-77.015721,38.915907,12-11-23 18:43:23,osm,https://www.openstreetmap.org/node/158476374,0.7,None
Beverley Hills,-77.072274,38.838968,12-11-23 18:43:23,osm,https://www.openstreetmap.org/node/158482533,0.7,None
Chillum Gardens,-76.989142,38.959277,12-11-23 18:43:23,osm,https://www.openstreetmap.org/node/158484173,0.7,None
Fairfax Village,-76.950843,38.86247,12-11-23 18:43:23,osm,https://www.openstreetmap.org/node/158485245,0.7,None
Green Meadows,-76.978587,38.967611,12-11-23 18:43:23,osm,https://www.openstreetmap.org/node/158485426,0.7,None
Queenstown,-76.964697,38.950666,12-11-23 18:43:23,osm,https://www.openstreetmap.org/node/158485446,0.7,None
Greenway,-76.956672,38.888122,12-11-23 18:43:23,osm,https://www.openstreetmap.org/node/158485708,0.7,None
Kenilworth,-76.939165,38.909328,12-11-23 18:43:23,osm,https://www.openstreetmap.org/node/158489169,0.7,None
Fort Davis Park,-76.946085,38.866779,12-11-23 18:43:23,osm,https://www.openstreetmap.org/node/158489254,0.7,None
Fort Barnard Heights,-77.089423,38.846502,12-11-23 18:43:23,osm,https://www.openstreetmap.org/node/158492045,0.7,None
Eastland Gardens,-76.943067,38.906077,12-11-23 18:43:23,osm,https://www.openstreetmap.org/node/158497860,0.7,None
Oakcrest,-77.087808,38.827364,12-11-23 18:43:23,osm,https://www.openstreetmap.org/node/158498501,0.7,None
Brentwood,-76.955803,38.942968,12-11-23 18:43:23,osm,https://www.openstreetmap.org/node/158500420,0.7,None
Temple Hills,-76.94553,38.814002,12-11-23 18:43:23,osm,https://www.openstreetmap.org/node/158501644,0.7,None
Knox Hill,-76.966919,38.853446,12-11-23 18:43:23,osm,https://www.openstreetmap.org/node/158502175,0.7,None
Capitol Hill,-77.000254,38.889001,12-11-23 18:43:23,osm,https://www.openstreetmap.org/node/158502198,0.7,None
Colebrooke,-76.951363,38.841224,12-11-23 18:43:23,osm,https://www.openstreetmap.org/node/158506733,0.7,None
Columbia Forest,-77.110257,38.854001,12-11-23 18:43:23,osm,https://www.openstreetmap.org/node/158511454,0.7,None
Rives,-76.956642,38.9315,12-11-23 18:43:23,osm,https://www.openstreetmap.org/node/158513877,0.7,None
Clarendon,-77.096971,38.885762,12-11-23 18:43:23,osm,https://www.openstreetmap.org/node/158514742,0.7,None
Arlington Mill,-77.118685,38.857015,12-11-23 18:43:23,osm,https://www.openstreetmap.org/node/158526782,0.7,None
Springbrook Terrace,-76.917474,38.955389,12-11-23 18:43:23,osm,https://www.openstreetmap.org/node/158527741,0.7,None
Bradbury Heights,-76.931085,38.863724,12-11-23 18:43:23,osm,https://www.openstreetmap.org/node/158530093,0.7,None
Spring Hill,-77.106367,38.953722,12-11-23 18:43:23,osm,https://www.openstreetmap.org/node/158530132,0.7,None
Woods Corner,-76.920912,38.821853,12-11-23 18:43:23,osm,https://www.openstreetmap.org/node/158530145,0.7,None
Shipley Terrace,-76.969142,38.847335,12-11-23 18:43:23,osm,https://www.openstreetmap.org/node/158531729,0.7,None
Calvert Hills,-76.93553,38.974833,12-11-23 18:43:23,osm,https://www.openstreetmap.org/node/158533186,0.7,None
North Brentwood,-76.951873,38.944505,12-11-23 18:43:23,osm,https://www.openstreetmap.org/node/158533754,0.7,None
Glenbrook,-77.092142,38.995484,12-11-23 18:43:23,osm,https://www.openstreetmap.org/node/158539185,0.7,None
Chatham,-76.958864,38.987055,12-11-23 18:43:23,osm,https://www.openstreetmap.org/node/158540470,0.7,None
Woodland,-76.973686,38.857127,12-11-23 18:43:23,osm,https://www.openstreetmap.org/node/158542394,0.7,None
Monticello Park,-77.068869,38.832337,12-11-23 18:43:23,osm,https://www.openstreetmap.org/node/158542905,0.7,None
Kalorama Heights,-77.052477,38.916778,12-11-23 18:43:23,osm,https://www.openstreetmap.org/node/158543745,0.7,None
Foggy Bottom,-77.050112,38.902518,12-11-23 18:43:23,osm,https://www.openstreetmap.org/node/158544916,0.7,None
West Riverdale,-76.942752,38.963166,12-11-23 18:43:23,osm,https://www.openstreetmap.org/node/158545441,0.7,None
Fairlawn,-76.978864,38.870946,12-11-23 18:43:23,osm,https://www.openstreetmap.org/node/158553539,0.7,None
University Park,-76.941919,38.970388,12-11-23 18:43:23,osm,https://www.openstreetmap.org/node/158553584,0.7,None
Avondale Terrace,-76.976087,38.953444,12-11-23 18:43:23,osm,https://www.openstreetmap.org/node/158554210,0.7,None
Kenwood Park,-77.118034,38.97761,12-11-23 18:43:23,osm,https://www.openstreetmap.org/node/158554343,0.7,None
Piney Court,-77.104145,38.82428,12-11-23 18:43:23,osm,https://www.openstreetmap.org/node/158556061,0.7,None
Springfield,-77.114701,38.967333,12-11-23 18:43:23,osm,https://www.openstreetmap.org/node/158556513,0.7,None
Chillum,-76.990809,38.963722,12-11-23 18:43:23,osm,https://www.openstreetmap.org/node/158558213,0.7,None
Greater Capitol Heights,-76.920807,38.878168,12-11-23 18:43:23,osm,https://www.openstreetmap.org/node/158559063,0.7,None
Huntington,-77.107478,38.987332,12-11-23 18:43:23,osm,https://www.openstreetmap.org/node/158560528,0.7,None
New Hampshire Gardens,-76.988621,38.982006,12-11-23 18:43:23,osm,https://www.openstreetmap.org/node/158562522,0.7,None
College Heights Estates,-76.951086,38.978444,12-11-23 18:43:23,osm,https://www.openstreetmap.org/node/158563010,0.7,None
Buckingham,-77.106645,38.873445,12-11-23 18:43:23,osm,https://www.openstreetmap.org/node/158563144,0.7,None
Brookville,-77.118312,38.821224,12-11-23 18:43:23,osm,https://www.openstreetmap.org/node/158566478,0.7,None
Columbia Forest,-77.085153,38.99011,12-11-23 18:43:23,osm,https://www.openstreetmap.org/node/158568531,0.7,None
Arlington Heights,-77.092072,38.867953,12-11-23 18:43:23,osm,https://www.openstreetmap.org/node/158568782,0.7,None
Petworth,-77.024979,38.94593,12-11-23 18:43:23,osm,https://www.openstreetmap.org/node/158570100,0.7,None
Fairmount Heights,-76.911699,38.901162,12-11-23 18:43:23,osm,https://www.openstreetmap.org/node/158573002,0.7,None
Edgewood,-77.000537,38.922613,12-11-23 18:43:23,osm,https://www.openstreetmap.org/node/158574015,0.7,None
Carroll Manor,-77.004421,38.980388,12-11-23 18:43:23,osm,https://www.openstreetmap.org/node/158574029,0.7,None
Green Acres,-77.099145,38.960388,12-11-23 18:43:23,osm,https://www.openstreetmap.org/node/158576997,0.7,None
Whitehall Manor,-77.109978,38.98261,12-11-23 18:43:23,osm,https://www.openstreetmap.org/node/158581788,0.7,None
Virginia Heights,-77.116368,38.850946,12-11-23 18:43:23,osm,https://www.openstreetmap.org/node/158586627,0.7,None
River Terrace,-76.957669,38.892148,12-11-23 18:43:23,osm,https://www.openstreetmap.org/node/158587730,0.7,None
Rogers Heights,-76.921918,38.948722,12-11-23 18:43:23,osm,https://www.openstreetmap.org/node/158588403,0.7,None
Beechwood Hills,-77.109979,38.909,12-11-23 18:43:23,osm,https://www.openstreetmap.org/node/158588874,0.7,None
Capitol View,-76.930768,38.890685,12-11-23 18:43:23,osm,https://www.openstreetmap.org/node/158589121,0.7,None
Arlington,-77.084159,38.890396,12-11-23 18:43:23,osm,https://www.openstreetmap.org/node/158591999,0.7,None
Deer Park Heights,-76.95053,38.825947,12-11-23 18:43:23,osm,https://www.openstreetmap.org/node/158593750,0.7,None
Marshall Heights,-76.92891,38.886314,12-11-23 18:43:23,osm,https://www.openstreetmap.org/node/158594478,0.7,None
Hunts Corner,-76.997909,38.801569,12-11-23 18:43:23,osm,https://www.openstreetmap.org/node/158596962,0.7,None
Washington Forest,-77.116923,38.837891,12-11-23 18:43:23,osm,https://www.openstreetmap.org/node/158597015,0.7,None
West End,-77.049699,38.907056,12-11-23 18:43:23,osm,https://www.openstreetmap.org/node/158597323,0.7,None
Lakeland,-76.929039,38.988898,12-11-23 18:43:23,osm,https://www.openstreetmap.org/node/158597691,0.7,None
Kirkwood,-76.968309,38.959555,12-11-23 18:43:23,osm,https://www.openstreetmap.org/node/158598675,0.7,None
Suitland,-76.923862,38.848724,12-11-23 18:43:23,osm,https://www.openstreetmap.org/node/158604710,0.7,None
Brookland,-76.984226,38.932832,12-11-23 18:43:23,osm,https://www.openstreetmap.org/node/158604941,0.7,None
Massachusetts Avenue Heights,-77.070651,38.925549,12-11-23 18:43:23,osm,https://www.openstreetmap.org/node/158605906,0.7,None
Eckington,-77.006637,38.914683,12-11-23 18:43:23,osm,https://www.openstreetmap.org/node/158606957,0.7,None
Friendship Heights,-77.084961,38.959833,12-11-23 18:43:23,osm,https://www.openstreetmap.org/node/158607102,0.7,None
Castle Manor,-76.955808,38.954555,12-11-23 18:43:23,osm,https://www.openstreetmap.org/node/158608474,0.7,None
Barry Farms,-76.996971,38.859804,12-11-23 18:43:23,osm,https://www.openstreetmap.org/node/158611280,0.7,None
Capitol Heights,-76.913477,38.884991,12-11-23 18:43:23,osm,https://www.openstreetmap.org/node/158611452,0.7,None
Aurora Hills,-77.064144,38.851501,12-11-23 18:43:23,osm,https://www.openstreetmap.org/node/158612136,0.7,None
Del Ray,-77.062758,38.821227,12-11-23 18:43:23,osm,https://www.openstreetmap.org/node/158612219,0.7,None
Silver Hill Park,-76.948585,38.83678,12-11-23 18:43:23,osm,https://www.openstreetmap.org/node/158613654,0.7,None
Rock Creek Gardens,-77.045533,38.988721,12-11-23 18:43:23,osm,https://www.openstreetmap.org/node/158617916,0.7,None
Chevy Chase Lake,-77.070533,38.992055,12-11-23 18:43:23,osm,https://www.openstreetmap.org/node/158619015,0.7,None
Rosecroft Park,-76.971919,38.795392,12-11-23 18:43:23,osm,https://www.openstreetmap.org/node/158620669,0.7,None
Oxon Hill,-76.989657,38.803596,12-11-23 18:43:23,osm,https://www.openstreetmap.org/node/158622032,0.7,None
Coral Hills,-76.921501,38.87053,12-11-23 18:43:23,osm,https://www.openstreetmap.org/node/158622600,0.7,None
Brightwood Park,-77.027992,38.956734,12-11-23 18:43:23,osm,https://www.openstreetmap.org/node/158623427,0.7,None
Forest Heights,-76.997236,38.814138,12-11-23 18:43:23,osm,https://www.openstreetmap.org/node/158629650,0.7,None
Adelphi Park,-76.968031,38.986499,12-11-23 18:43:23,osm,https://www.openstreetmap.org/node/158630150,0.7,None
Brightwood,-77.027115,38.965633,12-11-23 18:43:23,osm,https://www.openstreetmap.org/node/158635659,0.7,None
Deanwood,-76.930114,38.899838,12-11-23 18:43:23,osm,https://www.openstreetmap.org/node/158635853,0.7,None
Varsity Park,-77.112201,38.823724,12-11-23 18:43:23,osm,https://www.openstreetmap.org/node/158636065,0.7,None
Highland,-76.953871,38.938727,12-11-23 18:43:23,osm,https://www.openstreetmap.org/node/158636811,0.7,None
Hampshire Knolls,-76.994976,38.968166,12-11-23 18:43:23,osm,https://www.openstreetmap.org/node/158638102,0.7,None
Deanwood Park,-76.923307,38.905945,12-11-23 18:43:23,osm,https://www.openstreetmap.org/node/158638597,0.7,None
Carole Highlands,-76.983309,38.981499,12-11-23 18:43:23,osm,https://www.openstreetmap.org/node/158640520,0.7,None
North Kenilworth,-76.927474,38.921778,12-11-23 18:43:23,osm,https://www.openstreetmap.org/node/158640575,0.7,None
Saint Elmo,-77.055813,38.831226,12-11-23 18:43:23,osm,https://www.openstreetmap.org/node/158643167,0.7,None
Edgemoor,-77.102085,38.985263,12-11-23 18:43:23,osm,https://www.openstreetmap.org/node/158643766,0.7,None
Whiteley,-76.92803,38.947055,12-11-23 18:43:23,osm,https://www.openstreetmap.org/node/158645433,0.7,None
McLean Gardens,-77.075256,38.937333,12-11-23 18:43:23,osm,https://www.openstreetmap.org/node/158645685,0.7,None
University Gardens,-76.969975,38.981499,12-11-23 18:43:23,osm,https://www.openstreetmap.org/node/158645751,0.7,None
Middleton Farm,-76.918029,38.81178,12-11-23 18:43:23,osm,https://www.openstreetmap.org/node/158649790,0.7,None
Garfield Heights,-76.972829,38.854924,12-11-23 18:43:23,osm,https://www.openstreetmap.org/node/158651178,0.7,None
Clover,-77.078867,38.81178,12-11-23 18:43:23,osm,https://www.openstreetmap.org/node/158651930,0.7,None
Hillside,-76.92414,38.87289,12-11-23 18:43:23,osm,https://www.openstreetmap.org/node/158653661,0.7,None
English Village,-77.115256,38.988166,12-11-23 18:43:23,osm,https://www.openstreetmap.org/node/158653778,0.7,None
Parkland Terrace,-76.926363,38.842057,12-11-23 18:43:23,osm,https://www.openstreetmap.org/node/158654097,0.7,None
Lamond Riggs,-77.007476,38.966499,12-11-23 18:43:23,osm,https://www.openstreetmap.org/node/158654720,0.7,None
Southeast,-76.989976,38.880668,12-11-23 18:43:23,osm,https://www.openstreetmap.org/node/158655059,0.7,None
Hornbake Library Main,-76.941866,38.988149,12-11-23 18:43:23,osm,https://www.openstreetmap.org/node/256744009,0.7,None
Hornbake South Academic Entrance,-76.941832,38.987919,12-11-23 18:43:23,osm,https://www.openstreetmap.org/node/258901666,0.7,None
Testudo (McKeldin),-76.944569,38.985971,12-11-23 18:43:23,osm,https://www.openstreetmap.org/node/259042342,0.7,None
Testudo (Alumni Center),-76.949052,38.98921,12-11-23 18:43:23,osm,https://www.openstreetmap.org/node/259042570,0.7,None
Testudo (Maryland Stadium),-76.946642,38.989918,12-11-23 18:43:23,osm,https://www.openstreetmap.org/node/259043089,0.7,None
Testudo (Comcast Center),-76.940652,38.995015,12-11-23 18:43:23,osm,https://www.openstreetmap.org/node/259043193,0.7,None
M&T Bank,-76.946443,38.99148,12-11-23 18:43:23,osm,https://www.openstreetmap.org/node/271386693,0.7,None
Testudo (Football Team House),-76.946067,38.989598,12-11-23 18:43:23,osm,https://www.openstreetmap.org/node/273325151,0.7,None
Gate C,-76.940412,38.995004,12-11-23 18:43:23,osm,https://www.openstreetmap.org/node/287708048,0.7,None
Yates Automotive,-77.05665,38.813571,12-11-23 18:43:23,osm,https://www.openstreetmap.org/node/299794451,0.7,None
Shell,-77.050602,38.809981,12-11-23 18:43:23,osm,https://www.openstreetmap.org/node/299794459,0.7,None
Old Town Mart,-77.045379,38.813943,12-11-23 18:43:23,osm,https://www.openstreetmap.org/node/299794479,0.7,None
Shell,-77.044918,38.813247,12-11-23 18:43:23,osm,https://www.openstreetmap.org/node/299794506,0.7,None
Liberty,-77.044957,38.812518,12-11-23 18:43:23,osm,https://www.openstreetmap.org/node/299794534,0.7,None
Exxon,-77.045106,38.812123,12-11-23 18:43:23,osm,https://www.openstreetmap.org/node/299794542,0.7,None
King Street Metro Station,-77.060641,38.80667,12-11-23 18:43:23,osm,https://www.openstreetmap.org/node/299795401,0.7,None
King Street Metro Station,-77.059824,38.807246,12-11-23 18:43:23,osm,https://www.openstreetmap.org/node/299795429,0.7,None
City of Alexadria Public Library,-77.047164,38.807724,12-11-23 18:43:23,osm,https://www.openstreetmap.org/node/299801551,0.7,None
District of Columbia Fire and Emergency Medical Services Engine Company 6,-77.016108,38.907691,12-11-23 18:43:23,osm,https://www.openstreetmap.org/node/306011118,0.7,None
DC Fire Department Engine Company No. 1,-77.049753,38.905433,12-11-23 18:43:23,osm,https://www.openstreetmap.org/node/306011599,0.7,None
National Law Enforcement Officers Memorial,-77.017554,38.896757,12-11-23 18:43:23,osm,https://www.openstreetmap.org/node/306012833,0.7,None
DC Fire Department Engine Co. 3,-77.010947,38.895818,12-11-23 18:43:23,osm,https://www.openstreetmap.org/node/306020851,0.7,None
DC Fire Department Engine Co. 11/Truck Co. 6,-77.033029,38.932277,12-11-23 18:43:23,osm,https://www.openstreetmap.org/node/306499334,0.7,None
DC Fire Department Engine Co. 15,-76.986076,38.864849,12-11-23 18:43:23,osm,https://www.openstreetmap.org/node/306507109,0.7,None
DC Fire Department Engine Co. 22,-77.028339,38.960029,12-11-23 18:43:23,osm,https://www.openstreetmap.org/node/306515312,0.7,None
DC Fire Department Engine Co. 30,-76.93343,38.89071,12-11-23 18:43:23,osm,https://www.openstreetmap.org/node/307072199,0.7,None
DC Fire Department Engine Co. 33,-77.005126,38.830885,12-11-23 18:43:23,osm,https://www.openstreetmap.org/node/307120468,0.7,None
Sunoco,-77.072649,38.896375,12-11-23 18:43:23,osm,https://www.openstreetmap.org/node/309522679,0.7,None
Columbarium,-77.061024,38.875835,12-11-23 18:43:23,osm,https://www.openstreetmap.org/node/310423792,0.7,None
Bay-Eva Castle,-77.081514,38.900743,12-11-23 18:43:23,osm,https://www.openstreetmap.org/node/310856934,0.7,None
Stump,-77.039711,38.935643,12-11-23 18:43:23,osm,https://www.openstreetmap.org/node/311413722,0.7,None
Gallery Place,-77.021794,38.899672,12-11-23 18:43:23,osm,https://www.openstreetmap.org/node/324153414,0.7,None
Gallery Place,-77.021802,38.897461,12-11-23 18:43:23,osm,https://www.openstreetmap.org/node/324153442,0.7,None
Milkboy Arthouse,-76.938161,38.981431,12-11-23 18:43:23,osm,https://www.openstreetmap.org/node/344569889,0.7,None
George Washington Memorial Parkway,-77.045558,38.836669,12-11-23 18:43:23,osm,https://www.openstreetmap.org/node/356559714,0.7,None
Barcroft Elementary School,-77.10784,38.86167,12-11-23 18:43:23,osm,https://www.openstreetmap.org/node/356559985,0.7,None
Fairlington Elementary School (historical),-77.087556,38.834417,12-11-23 18:43:23,osm,https://www.openstreetmap.org/node/356561497,0.7,None
Saint Thomas More Cathedral School,-77.104399,38.871223,12-11-23 18:43:23,osm,https://www.openstreetmap.org/node/356565625,0.7,None
Emergency Room,-77.104424,38.822158,12-11-23 18:43:23,osm,https://www.openstreetmap.org/node/356567784,0.7,None
Houston School,-77.048033,38.812613,12-11-23 18:43:23,osm,https://www.openstreetmap.org/node/356568582,0.7,None
Immanuel Lutheran School,-77.065117,38.821999,12-11-23 18:43:23,osm,https://www.openstreetmap.org/node/356568602,0.7,None
Minnie Howard School,-77.095183,38.828177,12-11-23 18:43:23,osm,https://www.openstreetmap.org/node/356568925,0.7,None
Parker Gray Middle School,-77.051091,38.81456,12-11-23 18:43:23,osm,https://www.openstreetmap.org/node/356569170,0.7,None
Washington-Alexandria Architecture Center,-77.05092,38.804689,12-11-23 18:43:23,osm,https://www.openstreetmap.org/node/356569279,0.7,None
Saint Josephs School,-77.046088,38.812613,12-11-23 18:43:23,osm,https://www.openstreetmap.org/node/356569450,0.7,None
Saint Mary's Catholic School,-77.04676,38.79515,12-11-23 18:43:23,osm,https://www.openstreetmap.org/node/356569473,0.7,None
Foundation School of Alexandria,-77.0879,38.80724,12-11-23 18:43:23,osm,https://www.openstreetmap.org/node/356569682,0.7,None
Suburban School,-77.069756,38.823449,12-11-23 18:43:23,osm,https://www.openstreetmap.org/node/356569692,0.7,None
Virginia Theological Seminary,-77.092072,38.820485,12-11-23 18:43:23,osm,https://www.openstreetmap.org/node/356569882,0.7,None
Arlington Forest United Methodist Church,-77.112449,38.868254,12-11-23 18:43:23,osm,https://www.openstreetmap.org/node/356580916,0.7,None
Saint Stephens and Saint Agnes Upper School,-77.101552,38.817221,12-11-23 18:43:23,osm,https://www.openstreetmap.org/node/356581402,0.7,None
Shooters Hill,-77.070811,38.810669,12-11-23 18:43:23,osm,https://www.openstreetmap.org/node/356582096,0.7,None
Tomb of the Unknown Soldier,-77.072261,38.876385,12-11-23 18:43:23,osm,https://www.openstreetmap.org/node/356582211,0.7,None
Arlington Central Post Office,-77.104155,38.873761,12-11-23 18:43:23,osm,https://www.openstreetmap.org/node/356586254,0.7,None
Mackeys Hill,-77.080256,38.899834,12-11-23 18:43:23,osm,https://www.openstreetmap.org/node/356586824,0.7,None
Potomac Post Office,-77.058409,38.82376,12-11-23 18:43:23,osm,https://www.openstreetmap.org/node/356588852,0.7,None
Envoy of Alexandria,-77.075579,38.827005,12-11-23 18:43:23,osm,https://www.openstreetmap.org/node/356588854,0.7,None
Fairlington Post Office,-77.092743,38.829256,12-11-23 18:43:23,osm,https://www.openstreetmap.org/node/356588863,0.7,None
Meade Memorial Episcopal Church,-77.048798,38.808419,12-11-23 18:43:23,osm,https://www.openstreetmap.org/node/356588875,0.7,None
Saint Pauls Episcopal Church,-77.044977,38.802891,12-11-23 18:43:23,osm,https://www.openstreetmap.org/node/356588897,0.7,None
Saint Josephs Church,-77.046366,38.812335,12-11-23 18:43:23,osm,https://www.openstreetmap.org/node/356588902,0.7,None
Russell Temple Christian Methodist Episcopal Church,-77.049977,38.810947,12-11-23 18:43:23,osm,https://www.openstreetmap.org/node/356588904,0.7,None
Roberts Memorial United Methodist Church,-77.048033,38.799002,12-11-23 18:43:23,osm,https://www.openstreetmap.org/node/356588908,0.7,None
Second Presbyterian Church,-77.089425,38.816782,12-11-23 18:43:23,osm,https://www.openstreetmap.org/node/356588922,0.7,None
Allyene Zion African Methodist Episcopal Church,-77.055474,38.806316,12-11-23 18:43:23,osm,https://www.openstreetmap.org/node/356588928,0.7,None
Duke Street Baptist Church,-77.107125,38.812462,12-11-23 18:43:23,osm,https://www.openstreetmap.org/node/356588940,0.7,None
Del Ray United Methodist Church,-77.059799,38.824687,12-11-23 18:43:23,osm,https://www.openstreetmap.org/node/356588941,0.7,None
King Street Church,-77.077202,38.818171,12-11-23 18:43:23,osm,https://www.openstreetmap.org/node/356588945,0.7,None
Downtown Baptist Church,-77.047094,38.803291,12-11-23 18:43:23,osm,https://www.openstreetmap.org/node/356588949,0.7,None
Deuterman Family Graveyard,-77.099145,38.851501,12-11-23 18:43:23,osm,https://www.openstreetmap.org/node/356600907,0.7,None
Syphax Family Graveyard,-77.075259,38.870186,12-11-23 18:43:23,osm,https://www.openstreetmap.org/node/356600955,0.7,None
Alexandria Historic District,-77.046931,38.805139,12-11-23 18:43:23,osm,https://www.openstreetmap.org/node/356601041,0.7,None
Christ House,-77.054563,38.805545,12-11-23 18:43:23,osm,https://www.openstreetmap.org/node/356605886,0.7,None
Christian Science Reading Room,-77.048012,38.798294,12-11-23 18:43:23,osm,https://www.openstreetmap.org/node/356605893,0.7,None
Christian Voice Church,-77.049765,38.806748,12-11-23 18:43:23,osm,https://www.openstreetmap.org/node/356605896,0.7,None
First Vietnamese American United Methodist Church,-77.112479,38.868147,12-11-23 18:43:23,osm,https://www.openstreetmap.org/node/356605919,0.7,None
Gethsemane Church of God in Christ,-77.052474,38.806241,12-11-23 18:43:23,osm,https://www.openstreetmap.org/node/356605924,0.7,None
Victory Temple Missionary Baptist Church,-77.078317,38.806769,12-11-23 18:43:23,osm,https://www.openstreetmap.org/node/356605972,0.7,None
Arlington Free Clinic,-77.105439,38.88245,12-11-23 18:43:23,osm,https://www.openstreetmap.org/node/356605993,0.7,None
Grace Episcopal School,-77.064492,38.837252,12-11-23 18:43:23,osm,https://www.openstreetmap.org/node/356606003,0.7,None
Buckingham Post Office,-77.10439,38.873561,12-11-23 18:43:23,osm,https://www.openstreetmap.org/node/356606027,0.7,None
Alexandria Friends School,-77.065277,38.827147,12-11-23 18:43:23,osm,https://www.openstreetmap.org/node/356606040,0.7,None
Arlington United Methodist Church Preschool,-77.093249,38.864799,12-11-23 18:43:23,osm,https://www.openstreetmap.org/node/356606044,0.7,None
Del Ray Baptist Child Care Center,-77.064747,38.827576,12-11-23 18:43:23,osm,https://www.openstreetmap.org/node/356606057,0.7,None
Emmanuel Episcopal Church Preschool,-77.066969,38.820375,12-11-23 18:43:23,osm,https://www.openstreetmap.org/node/356606061,0.7,None
Elfland School,-77.11127,38.80031,12-11-23 18:43:23,osm,https://www.openstreetmap.org/node/356606085,0.7,None
Saint Charles Elementary School,-77.0991,38.88542,12-11-23 18:43:23,osm,https://www.openstreetmap.org/node/356606093,0.7,None
Saint Paul's Nursery And Day School,-77.04486,38.80332,12-11-23 18:43:23,osm,https://www.openstreetmap.org/node/356606128,0.7,None
Embassy School,-77.089851,38.892775,12-11-23 18:43:23,osm,https://www.openstreetmap.org/node/356606150,0.7,None
Thornton Friends School,-77.096402,38.820783,12-11-23 18:43:23,osm,https://www.openstreetmap.org/node/356606259,0.7,None
Saint Coletta School,-77.057528,38.80463,12-11-23 18:43:23,osm,https://www.openstreetmap.org/node/356606487,0.7,None
Saint Clement Episcopal School,-77.084952,38.832412,12-11-23 18:43:23,osm,https://www.openstreetmap.org/node/356606630,0.7,None
Early Years Preschool New Beginnings at Cherrydale,-77.102847,38.901335,12-11-23 18:43:23,osm,https://www.openstreetmap.org/node/356606810,0.7,None
Strayer University,-77.080084,38.801644,12-11-23 18:43:23,osm,https://www.openstreetmap.org/node/356606813,0.7,None
Bethesda Community School,-77.111367,38.984832,12-11-23 18:43:23,osm,https://www.openstreetmap.org/node/358238167,0.7,None
Little Falls Park,-77.100256,38.970944,12-11-23 18:43:23,osm,https://www.openstreetmap.org/node/358239199,0.7,None
Our Lady of Lourdes School,-77.091497,38.985379,12-11-23 18:43:23,osm,https://www.openstreetmap.org/node/358239774,0.7,None
Ohr Kodesh Congregational Synagogue,-77.060694,38.993267,12-11-23 18:43:23,osm,https://www.openstreetmap.org/node/358242469,0.7,None
Bethesda Presbyterian Church,-77.100534,38.989832,12-11-23 18:43:23,osm,https://www.openstreetmap.org/node/358242479,0.7,None
Leland Junior High School,-77.090737,38.984353,12-11-23 18:43:23,osm,https://www.openstreetmap.org/node/358242749,0.7,None
Chevy Chase Post Office,-77.077564,38.970953,12-11-23 18:43:23,osm,https://www.openstreetmap.org/node/358243881,0.7,None
Addison School,-77.003349,38.791428,12-11-23 18:43:23,osm,https://www.openstreetmap.org/node/358244961,0.7,None
Beaver Heights School,-76.926641,38.91039,12-11-23 18:43:23,osm,https://www.openstreetmap.org/node/358244998,0.7,None
Birchwood City School,-76.964812,38.815745,12-11-23 18:43:23,osm,https://www.openstreetmap.org/node/358245011,0.7,None
Bladensburg High School,-76.918891,38.942708,12-11-23 18:43:23,osm,https://www.openstreetmap.org/node/358245012,0.7,None
Bnai Israel Cemetery,-76.963864,38.815113,12-11-23 18:43:23,osm,https://www.openstreetmap.org/node/358245016,0.7,None
Brentwood School,-76.958586,38.941222,12-11-23 18:43:23,osm,https://www.openstreetmap.org/node/358245030,0.7,None
Brooks Road Recreation Center,-76.914418,38.875112,12-11-23 18:43:23,osm,https://www.openstreetmap.org/node/358245036,0.7,None
Capitol Heights School,-76.913584,38.884557,12-11-23 18:43:23,osm,https://www.openstreetmap.org/node/358245052,0.7,None
Samuel Chase Elementary School,-76.951529,38.809804,12-11-23 18:43:23,osm,https://www.openstreetmap.org/node/358245078,0.7,None
Colmar Manor School,-76.94938,38.931672,12-11-23 18:43:23,osm,https://www.openstreetmap.org/node/358245105,0.7,None
Concordia Lutheran School,-76.950259,38.965841,12-11-23 18:43:23,osm,https://www.openstreetmap.org/node/358245109,0.7,None
Crossland High School,-76.929964,38.794175,12-11-23 18:43:23,osm,https://www.openstreetmap.org/node/358245115,0.7,None
De La Salle College,-76.97942,38.949833,12-11-23 18:43:23,osm,https://www.openstreetmap.org/node/358245120,0.7,None
De Sales Hall,-76.98485,38.953131,12-11-23 18:43:23,osm,https://www.openstreetmap.org/node/358245123,0.7,None
Fairmount Heights High School,-76.919418,38.909834,12-11-23 18:43:23,osm,https://www.openstreetmap.org/node/358245159,0.7,None
Flintstone Elementary School,-76.995222,38.80691,12-11-23 18:43:23,osm,https://www.openstreetmap.org/node/358245169,0.7,None
Glassmanor Elementary School,-76.990531,38.817058,12-11-23 18:43:23,osm,https://www.openstreetmap.org/node/358245204,0.7,None
Green Valley Elementary School,-76.96447,38.840751,12-11-23 18:43:23,osm,https://www.openstreetmap.org/node/358245227,0.7,None
Hanson Junior High School,-76.992224,38.802744,12-11-23 18:43:23,osm,https://www.openstreetmap.org/node/358245249,0.7,None
Hillcrest Heights Elementary School,-76.960334,38.830201,12-11-23 18:43:23,osm,https://www.openstreetmap.org/node/358245270,0.7,None
Holy Family School,-76.964195,38.836474,12-11-23 18:43:23,osm,https://www.openstreetmap.org/node/358245283,0.7,None
Lakeland School,-76.924794,38.989597,12-11-23 18:43:23,osm,https://www.openstreetmap.org/node/358245320,0.7,None
Lareine High School,-76.919399,38.854122,12-11-23 18:43:23,osm,https://www.openstreetmap.org/node/358245326,0.7,None
Leland Memorial Hospital,-76.940808,38.963444,12-11-23 18:43:23,osm,https://www.openstreetmap.org/node/358245335,0.7,None
Lewisdale Elementary School,-76.968459,38.974624,12-11-23 18:43:23,osm,https://www.openstreetmap.org/node/358245337,0.7,None
Mount Hope Church,-76.924973,38.794281,12-11-23 18:43:23,osm,https://www.openstreetmap.org/node/358245385,0.7,None
North Englewood Playground,-76.918023,38.912402,12-11-23 18:43:23,osm,https://www.openstreetmap.org/node/358245412,0.7,None
Pallotti College,-76.975367,38.97076,12-11-23 18:43:23,osm,https://www.openstreetmap.org/node/358245442,0.7,None
Potomac High School,-76.977444,38.821028,12-11-23 18:43:23,osm,https://www.openstreetmap.org/node/358245469,0.7,None
Ray School,-76.999976,38.972333,12-11-23 18:43:23,osm,https://www.openstreetmap.org/node/358245487,0.7,None
Rogers Heights Elementary School,-76.911524,38.946335,12-11-23 18:43:23,osm,https://www.openstreetmap.org/node/358245508,0.7,None
Rosecroft Park School,-76.977475,38.798447,12-11-23 18:43:23,osm,https://www.openstreetmap.org/node/358245515,0.7,None
Saint Barnabas Church,-76.961077,38.818993,12-11-23 18:43:23,osm,https://www.openstreetmap.org/node/358245656,0.7,None
Saint Ignatius Church,-76.966626,38.804531,12-11-23 18:43:23,osm,https://www.openstreetmap.org/node/358245663,0.7,None
Saint John De La Salle School,-76.988587,38.960944,12-11-23 18:43:23,osm,https://www.openstreetmap.org/node/358245664,0.7,None
St Philip The Apostle Catholic School,-76.913261,38.822064,12-11-23 18:43:23,osm,https://www.openstreetmap.org/node/358245695,0.7,None
Sandymount School,-76.949919,38.830218,12-11-23 18:43:23,osm,https://www.openstreetmap.org/node/358245708,0.7,None
School of Hope,-76.947196,38.80678,12-11-23 18:43:23,osm,https://www.openstreetmap.org/node/358245710,0.7,None
Elizabeth Seton High School,-76.913863,38.945944,12-11-23 18:43:23,osm,https://www.openstreetmap.org/node/358245723,0.7,None
Shadyside Elementary School,-76.927311,38.852895,12-11-23 18:43:23,osm,https://www.openstreetmap.org/node/358245724,0.7,None
G Gardner Shugart Middle School,-76.968288,38.834174,12-11-23 18:43:23,osm,https://www.openstreetmap.org/node/358245728,0.7,None
Sojourner Truth School,-76.984539,38.803294,12-11-23 18:43:23,osm,https://www.openstreetmap.org/node/358245734,0.7,None
Benjamin Stoddert Middle School,-76.947554,38.830332,12-11-23 18:43:23,osm,https://www.openstreetmap.org/node/358245741,0.7,None
Suitland High School,-76.91771,38.854185,12-11-23 18:43:23,osm,https://www.openstreetmap.org/node/358245746,0.7,None
Suitland Junior High School,-76.917967,38.858199,12-11-23 18:43:23,osm,https://www.openstreetmap.org/node/358245747,0.7,None
Suitland School,-76.923862,38.847057,12-11-23 18:43:23,osm,https://www.openstreetmap.org/node/358245749,0.7,None
Temple Hills Community Center,-76.938037,38.814285,12-11-23 18:43:23,osm,https://www.openstreetmap.org/node/358245767,0.7,None
Woodley Knolls School,-76.932752,38.861502,12-11-23 18:43:23,osm,https://www.openstreetmap.org/node/358245812,0.7,None
Zion Church,-76.988722,38.984386,12-11-23 18:43:23,osm,https://www.openstreetmap.org/node/358245825,0.7,None
WMUC-FM (College Park),-76.943308,38.983166,12-11-23 18:43:23,osm,https://www.openstreetmap.org/node/358245926,0.7,None
WGTS-FM (Takoma Park),-77.000924,38.986742,12-11-23 18:43:23,osm,https://www.openstreetmap.org/node/358245962,0.7,None
WGTS-FM (Takoma Park),-76.996921,38.991777,12-11-23 18:43:23,osm,https://www.openstreetmap.org/node/358245963,0.7,None
Cheverly Tuxedo Elementary School,-76.91664,38.919278,12-11-23 18:43:23,osm,https://www.openstreetmap.org/node/358253174,0.7,None
Adelphi Bible Church,-76.973031,38.99511,12-11-23 18:43:23,osm,https://www.openstreetmap.org/node/358253225,0.7,None
Ager Road United Methodist Church,-76.97442,38.967055,12-11-23 18:43:23,osm,https://www.openstreetmap.org/node/358253232,0.7,None
Carroll Manor Nursing Home,-76.979593,38.952548,12-11-23 18:43:23,osm,https://www.openstreetmap.org/node/358253253,0.7,None
Cheverly United Methodist Church,-76.911571,38.925029,12-11-23 18:43:23,osm,https://www.openstreetmap.org/node/358253256,0.7,None
Grace United Methodist Church,-76.991889,38.977048,12-11-23 18:43:23,osm,https://www.openstreetmap.org/node/358253292,0.7,None
Holy Redeemer Catholic Church,-76.927752,38.995388,12-11-23 18:43:23,osm,https://www.openstreetmap.org/node/358253302,0.7,None
Mount Rainier Historic District,-76.96241,38.941394,12-11-23 18:43:23,osm,https://www.openstreetmap.org/node/358253374,0.7,None
Mount Rainier Neighborhood Park,-76.964975,38.947889,12-11-23 18:43:23,osm,https://www.openstreetmap.org/node/358253375,0.7,None
Saint Bernard Catholic Church,-76.915659,38.957423,12-11-23 18:43:23,osm,https://www.openstreetmap.org/node/358253414,0.7,None
Saint Cecilia Chapel,-76.976087,38.971499,12-11-23 18:43:23,osm,https://www.openstreetmap.org/node/358253416,0.7,None
Saint Lukes Episcopal Church,-76.926641,38.939556,12-11-23 18:43:23,osm,https://www.openstreetmap.org/node/358253427,0.7,None
Saint Matthews Episcopal Church,-76.955808,38.962333,12-11-23 18:43:23,osm,https://www.openstreetmap.org/node/358253433,0.7,None
West Hyattsville Baptist Church,-76.965166,38.963379,12-11-23 18:43:23,osm,https://www.openstreetmap.org/node/358253462,0.7,None
Allenwood Elementary School,-76.929961,38.803,12-11-23 18:43:23,osm,https://www.openstreetmap.org/node/358253467,0.7,None
Barnaby Run Park,-76.978586,38.830113,12-11-23 18:43:23,osm,https://www.openstreetmap.org/node/358253471,0.7,None
Bradbury Heights Recreation Center,-76.934691,38.856557,12-11-23 18:43:23,osm,https://www.openstreetmap.org/node/358253480,0.7,None
Saint Stevens Baptist Church,-76.933863,38.80428,12-11-23 18:43:23,osm,https://www.openstreetmap.org/node/358253482,0.7,None
Camp Springs United Methodist Church,-76.931019,38.799715,12-11-23 18:43:23,osm,https://www.openstreetmap.org/node/358253484,0.7,None
Church of Christ,-76.950252,38.817891,12-11-23 18:43:23,osm,https://www.openstreetmap.org/node/358253489,0.7,None
Church of the Nativity,-76.915807,38.815391,12-11-23 18:43:23,osm,https://www.openstreetmap.org/node/358253490,0.7,None
Grace Brethren Church,-76.955946,38.820898,12-11-23 18:43:23,osm,https://www.openstreetmap.org/node/358253506,0.7,None
Hillcrest Baptist Church,-76.961081,38.833172,12-11-23 18:43:23,osm,https://www.openstreetmap.org/node/358253511,0.7,None
Hillcrest Park,-76.970253,38.828446,12-11-23 18:43:23,osm,https://www.openstreetmap.org/node/358253512,0.7,None
J Frank Dent Elementary School,-76.961134,38.809902,12-11-23 18:43:23,osm,https://www.openstreetmap.org/node/358253516,0.7,None
John Eager Howard Elementary School,-76.93063,38.869149,12-11-23 18:43:23,osm,https://www.openstreetmap.org/node/358253517,0.7,None
Mount Hope Cemetery,-76.924696,38.794836,12-11-23 18:43:23,osm,https://www.openstreetmap.org/node/358253535,0.7,None
North Barnaby Recreation Area,-76.967396,38.822001,12-11-23 18:43:23,osm,https://www.openstreetmap.org/node/358253538,0.7,None
Our Savior Lutheran Church,-76.956575,38.821977,12-11-23 18:43:23,osm,https://www.openstreetmap.org/node/358253540,0.7,None
Queens Road Elementary School,-76.981086,38.818724,12-11-23 18:43:23,osm,https://www.openstreetmap.org/node/358253541,0.7,None
Owens Road Park,-76.973618,38.818981,12-11-23 18:43:23,osm,https://www.openstreetmap.org/node/358253543,0.7,None
Oxon Hill Baptist Church,-76.983031,38.798447,12-11-23 18:43:23,osm,https://www.openstreetmap.org/node/358253544,0.7,None
Oxon Hill Lutheran Church,-76.949696,38.802614,12-11-23 18:43:23,osm,https://www.openstreetmap.org/node/358253548,0.7,None
Oxon Hill Post Office,-76.990666,38.802969,12-11-23 18:43:23,osm,https://www.openstreetmap.org/node/358253551,0.7,None
Panorama Special Education Center,-76.969419,38.835669,12-11-23 18:43:23,osm,https://www.openstreetmap.org/node/358253555,0.7,None
Rosilie Island,-77.024698,38.793725,12-11-23 18:43:23,osm,https://www.openstreetmap.org/node/358253563,0.7,None
Saint Barnabus Cemetery,-76.959983,38.818803,12-11-23 18:43:23,osm,https://www.openstreetmap.org/node/358253564,0.7,None
Saint Bernardine of Siena Catholic Church,-76.920048,38.857748,12-11-23 18:43:23,osm,https://www.openstreetmap.org/node/358253565,0.7,None
Saint Ignatius Cemetery,-76.966919,38.80428,12-11-23 18:43:23,osm,https://www.openstreetmap.org/node/358253567,0.7,None
Saint Paul United Methodist Church,-76.982475,38.798169,12-11-23 18:43:23,osm,https://www.openstreetmap.org/node/358253571,0.7,None
Saint Pauls Cemetery,-76.981919,38.797891,12-11-23 18:43:23,osm,https://www.openstreetmap.org/node/358253572,0.7,None
Temple Hills Baptist Church,-76.952196,38.823447,12-11-23 18:43:23,osm,https://www.openstreetmap.org/node/358253579,0.7,None
Temple Hills Church of God,-76.95053,38.822891,12-11-23 18:43:23,osm,https://www.openstreetmap.org/node/358253581,0.7,None
Temple Hills Recreation Center,-76.953622,38.817901,12-11-23 18:43:23,osm,https://www.openstreetmap.org/node/358253584,0.7,None
Valley View Elementary School,-76.976086,38.81178,12-11-23 18:43:23,osm,https://www.openstreetmap.org/node/358253589,0.7,None
William Beanes Elementary School,-76.91914,38.840391,12-11-23 18:43:23,osm,https://www.openstreetmap.org/node/358253591,0.7,None
Dupont Heights Park,-76.925529,38.860391,12-11-23 18:43:23,osm,https://www.openstreetmap.org/node/358253619,0.7,None
Marlow Heights Park,-76.946363,38.834002,12-11-23 18:43:23,osm,https://www.openstreetmap.org/node/358253640,0.7,None
Suitland Park,-76.915913,38.856149,12-11-23 18:43:23,osm,https://www.openstreetmap.org/node/358253676,0.7,None
Grace United Methodist Church,-76.916085,38.900112,12-11-23 18:43:23,osm,https://www.openstreetmap.org/node/358253769,0.7,None
Overlook Elementary School,-76.950175,38.848481,12-11-23 18:43:23,osm,https://www.openstreetmap.org/node/358253774,0.7,None
Sylvan Vista Baptist Church,-76.913434,38.903815,12-11-23 18:43:23,osm,https://www.openstreetmap.org/node/358253776,0.7,None
Zion Apostolic Faith Church,-76.913307,38.899834,12-11-23 18:43:23,osm,https://www.openstreetmap.org/node/358253778,0.7,None
Barnaby Manor Elementary School,-76.965262,38.81656,12-11-23 18:43:23,osm,https://www.openstreetmap.org/node/358253913,0.7,None
John Hanson Montessori Elementary School,-76.992744,38.803599,12-11-23 18:43:23,osm,https://www.openstreetmap.org/node/358253924,0.7,None
Panorama Elementary School,-76.992673,38.803766,12-11-23 18:43:23,osm,https://www.openstreetmap.org/node/358253928,0.7,None
Robert R Gray Elementary School,-76.921918,38.910112,12-11-23 18:43:23,osm,https://www.openstreetmap.org/node/358253930,0.7,None
Thurgood Marshall Middle School,-76.922031,38.801601,12-11-23 18:43:23,osm,https://www.openstreetmap.org/node/358253936,0.7,None
Jessie B Mason Regional School,-76.950808,38.837613,12-11-23 18:43:23,osm,https://www.openstreetmap.org/node/358253943,0.7,None
Annapolis Road Middle School,-76.930979,38.940173,12-11-23 18:43:23,osm,https://www.openstreetmap.org/node/358253947,0.7,None
Sligo Seventh-day Adventist Church,-76.99831,38.985388,12-11-23 18:43:23,osm,https://www.openstreetmap.org/node/358253963,0.7,None
Drew Freeman Middle School,-76.91963,38.855012,12-11-23 18:43:23,osm,https://www.openstreetmap.org/node/358253967,0.7,None
Fitly Joined Together School,-76.943009,38.825902,12-11-23 18:43:23,osm,https://www.openstreetmap.org/node/358254326,0.7,None
Bradbury Heights Elementary School,-76.92851,38.87105,12-11-23 18:43:23,osm,https://www.openstreetmap.org/node/358254330,0.7,None
From the Heart Christian School,-76.950513,38.830347,12-11-23 18:43:23,osm,https://www.openstreetmap.org/node/358254357,0.7,None
Gods Church International High School,-76.935733,38.822223,12-11-23 18:43:23,osm,https://www.openstreetmap.org/node/358254393,0.7,None
Crossland Evening High School,-76.930347,38.795013,12-11-23 18:43:23,osm,https://www.openstreetmap.org/node/358254463,0.7,None
Edgar Allan Poe Elementary School,-76.933146,38.863064,12-11-23 18:43:23,osm,https://www.openstreetmap.org/node/358254522,0.7,None
Henson Valley Montessori School,-76.9215,38.79353,12-11-23 18:43:23,osm,https://www.openstreetmap.org/node/358254565,0.7,None
Faith Hope Christian Academy,-76.915922,38.864871,12-11-23 18:43:23,osm,https://www.openstreetmap.org/node/358254600,0.7,None
Free Gospel Christian Academy,-76.93302,38.87409,12-11-23 18:43:23,osm,https://www.openstreetmap.org/node/358254646,0.7,None
National Christian Academy,-76.97889,38.798991,12-11-23 18:43:23,osm,https://www.openstreetmap.org/node/358254660,0.7,None
Progressive Christian Academy,-76.913394,38.801893,12-11-23 18:43:23,osm,https://www.openstreetmap.org/node/358254748,0.7,None
North End Academy,-76.930475,38.940167,12-11-23 18:43:23,osm,https://www.openstreetmap.org/node/358254781,0.7,None
Hyattsville Hills Child Family School,-76.94593,38.95687,12-11-23 18:43:23,osm,https://www.openstreetmap.org/node/358254796,0.7,None
Leary School Prince George's County,-77.002687,38.791859,12-11-23 18:43:23,osm,https://www.openstreetmap.org/node/358254799,0.7,None
Cross Cultures Learning Center,-76.930813,38.797104,12-11-23 18:43:23,osm,https://www.openstreetmap.org/node/358254801,0.7,None
Willowbrook Childrens House School,-76.98096,38.98998,12-11-23 18:43:23,osm,https://www.openstreetmap.org/node/358254840,0.7,None
Ohr Kodesh Early Childhood Center,-77.060656,38.993314,12-11-23 18:43:23,osm,https://www.openstreetmap.org/node/358254845,0.7,None
Bladensburg Evening High School,-76.918603,38.942611,12-11-23 18:43:23,osm,https://www.openstreetmap.org/node/358254896,0.7,None
Concord Hill School,-77.08963,38.97029,12-11-23 18:43:23,osm,https://www.openstreetmap.org/node/358254984,0.7,None
Renaissance Christian Academy,-76.933283,38.860878,12-11-23 18:43:23,osm,https://www.openstreetmap.org/node/358254988,0.7,None
New Horizon Child Development Center,-76.914816,38.852173,12-11-23 18:43:23,osm,https://www.openstreetmap.org/node/358255053,0.7,None
Washington - McLaughlin Christian Elementary School,-76.999438,38.971501,12-11-23 18:43:23,osm,https://www.openstreetmap.org/node/358255107,0.7,None
Lou's Child Development Center,-76.923153,38.954852,12-11-23 18:43:23,osm,https://www.openstreetmap.org/node/358255116,0.7,None
Corkran United Methodist Preschool,-76.941708,38.813696,12-11-23 18:43:23,osm,https://www.openstreetmap.org/node/358255134,0.7,None
Saint Matthew's Parish Day School,-76.95618,38.96196,12-11-23 18:43:23,osm,https://www.openstreetmap.org/node/358255135,0.7,None
Christian Family Montessori School,-76.958725,38.937725,12-11-23 18:43:23,osm,https://www.openstreetmap.org/node/358255150,0.7,None
Bethesda Montessori School,-77.10085,38.985995,12-11-23 18:43:23,osm,https://www.openstreetmap.org/node/358255175,0.7,None
Holden Montessori Day School,-77.109921,38.957251,12-11-23 18:43:23,osm,https://www.openstreetmap.org/node/358255230,0.7,None
Greenwood School,-76.952942,38.969467,12-11-23 18:43:23,osm,https://www.openstreetmap.org/node/358255251,0.7,None
Sunoco,-76.95177,38.80352,12-11-23 18:43:23,osm,https://www.openstreetmap.org/node/358255335,0.7,None
Saint Ignatius Elementary School,-76.968496,38.8053,12-11-23 18:43:23,osm,https://www.openstreetmap.org/node/358255361,0.7,None
Northwestern Evening High School,-76.954352,38.975242,12-11-23 18:43:23,osm,https://www.openstreetmap.org/node/358255539,0.7,None
Port Towns Elementary School,-76.912693,38.94489,12-11-23 18:43:23,osm,https://www.openstreetmap.org/node/358255542,0.7,None
Suitland Elementary School,-76.927697,38.852386,12-11-23 18:43:23,osm,https://www.openstreetmap.org/node/358255543,0.7,None
William W Hall Elementary School,-76.918294,38.870751,12-11-23 18:43:23,osm,https://www.openstreetmap.org/node/358255544,0.7,None
Sans Technology Institute,-77.096983,38.991647,12-11-23 18:43:23,osm,https://www.openstreetmap.org/node/358255641,0.7,None
The Nora School,-77.025171,38.990306,12-11-23 18:43:23,osm,https://www.openstreetmap.org/node/358255651,0.7,None
Betty Blume Park,-77.01122,38.79156,12-11-23 18:43:23,osm,https://www.openstreetmap.org/node/358255786,0.7,None
Maple Springs Baptist Church,-76.942528,38.863384,12-11-23 18:43:23,osm,https://www.openstreetmap.org/node/358255820,0.7,None
Marthoma Church of Greater Washington,-77.002034,38.978237,12-11-23 18:43:23,osm,https://www.openstreetmap.org/node/358255821,0.7,None
Metropolitan Seventh Day Adventist Church,-76.986759,38.966617,12-11-23 18:43:23,osm,https://www.openstreetmap.org/node/358255823,0.7,None
Milagros De Jesu Cristo,-76.974472,38.967234,12-11-23 18:43:23,osm,https://www.openstreetmap.org/node/358255824,0.7,None
Abyssinia Baptist Church,-76.925732,38.910482,12-11-23 18:43:23,osm,https://www.openstreetmap.org/node/358255835,0.7,None
Arise Outreach Ministry,-76.924381,38.871982,12-11-23 18:43:23,osm,https://www.openstreetmap.org/node/358255841,0.7,None
Ark of Safety Christian Church,-76.986392,38.801899,12-11-23 18:43:23,osm,https://www.openstreetmap.org/node/358255842,0.7,None
Bethany Lutheran Church,-76.912252,38.852051,12-11-23 18:43:23,osm,https://www.openstreetmap.org/node/358255850,0.7,None
Bible Life Christian Center,-76.986144,38.801279,12-11-23 18:43:23,osm,https://www.openstreetmap.org/node/358255856,0.7,None
Bright Light Baptist Church,-76.9897,38.9815,12-11-23 18:43:23,osm,https://www.openstreetmap.org/node/358255861,0.7,None
Central Baptist Church,-76.9255,38.9391,12-11-23 18:43:23,osm,https://www.openstreetmap.org/node/358255874,0.7,None
Chevy Chase United Methodist Church,-77.076756,38.980233,12-11-23 18:43:23,osm,https://www.openstreetmap.org/node/358255880,0.7,None
Chinese Christian Church of Greater Washington District of Columbia,-77.013874,38.98662,12-11-23 18:43:23,osm,https://www.openstreetmap.org/node/358255881,0.7,None
Christ Apostolic Church of America,-76.927875,38.947743,12-11-23 18:43:23,osm,https://www.openstreetmap.org/node/358255885,0.7,None
Christ Cornerstone Church,-76.941285,38.826596,12-11-23 18:43:23,osm,https://www.openstreetmap.org/node/358255888,0.7,None
Church of the Living God,-76.985255,38.957109,12-11-23 18:43:23,osm,https://www.openstreetmap.org/node/358255904,0.7,None
Colmar Manor Bible Church,-76.946116,38.935471,12-11-23 18:43:23,osm,https://www.openstreetmap.org/node/358255939,0.7,None
Corkran Memorial Methodist Church,-76.941,38.8141,12-11-23 18:43:23,osm,https://www.openstreetmap.org/node/358255946,0.7,None
Cornerstone Baptist Community Church,-76.964292,38.839084,12-11-23 18:43:23,osm,https://www.openstreetmap.org/node/358255948,0.7,None
Cornerstone New Life Ministries,-76.941383,38.82666,12-11-23 18:43:23,osm,https://www.openstreetmap.org/node/358255949,0.7,None
Craig Memorial Community Church,-76.914975,38.907648,12-11-23 18:43:23,osm,https://www.openstreetmap.org/node/358255952,0.7,None
Decatur Heights Baptist Church,-76.932316,38.942727,12-11-23 18:43:23,osm,https://www.openstreetmap.org/node/358255956,0.7,None
Ebenezer Methodist Church,-76.956014,38.961865,12-11-23 18:43:23,osm,https://www.openstreetmap.org/node/358255963,0.7,None
Emmanuel Church of Pentecost,-76.950747,38.935198,12-11-23 18:43:23,osm,https://www.openstreetmap.org/node/358255966,0.7,None
Emmanuel Temple Seventh Day Adventist Church,-77.056725,38.830194,12-11-23 18:43:23,osm,https://www.openstreetmap.org/node/358255969,0.7,None
First Baptist Church of Hyattsville,-76.945983,38.956749,12-11-23 18:43:23,osm,https://www.openstreetmap.org/node/358256004,0.7,None
First Baptist Church of Suitland,-76.914038,38.852645,12-11-23 18:43:23,osm,https://www.openstreetmap.org/node/358256010,0.7,None
First Evangelical Church,-76.912061,38.862335,12-11-23 18:43:23,osm,https://www.openstreetmap.org/node/358256015,0.7,None
Garden of Gethsemane Church of God in Christ,-76.957898,38.941883,12-11-23 18:43:23,osm,https://www.openstreetmap.org/node/358256026,0.7,None
Givens Bible Church,-76.977727,38.945411,12-11-23 18:43:23,osm,https://www.openstreetmap.org/node/358256028,0.7,None
Good Samaritan Mission,-76.933868,38.853437,12-11-23 18:43:23,osm,https://www.openstreetmap.org/node/358256035,0.7,None
Good Shepherd Baptist Church,-76.965139,38.81807,12-11-23 18:43:23,osm,https://www.openstreetmap.org/node/358256038,0.7,None
Gospel Faith Mission International,-76.954664,38.937554,12-11-23 18:43:23,osm,https://www.openstreetmap.org/node/358256045,0.7,None
Greater Beulah Baptist Church,-76.912492,38.88508,12-11-23 18:43:23,osm,https://www.openstreetmap.org/node/358256050,0.7,None
Holy Truth of God in Christ Jesus Church,-76.918069,38.89637,12-11-23 18:43:23,osm,https://www.openstreetmap.org/node/358256058,0.7,None
Saint James Baptist Church,-76.917554,38.885251,12-11-23 18:43:23,osm,https://www.openstreetmap.org/node/358256091,0.7,None
Saint Mark's Church,-76.95435,38.982162,12-11-23 18:43:23,osm,https://www.openstreetmap.org/node/358256105,0.7,None
Second Church of God and Saints of Christ,-76.944689,38.951642,12-11-23 18:43:23,osm,https://www.openstreetmap.org/node/358256123,0.7,None
Solid Rock Church,-76.91325,38.971484,12-11-23 18:43:23,osm,https://www.openstreetmap.org/node/358256142,0.7,None
Spirit of Faith Christian Center,-76.967688,38.842113,12-11-23 18:43:23,osm,https://www.openstreetmap.org/node/358256150,0.7,None
The Church of God of Prophecy,-76.944689,38.95162,12-11-23 18:43:23,osm,https://www.openstreetmap.org/node/358256160,0.7,None
The Church of Jesus Christ of Latter-day Saints,-76.949396,38.967886,12-11-23 18:43:23,osm,https://www.openstreetmap.org/node/358256163,0.7,None
True Deliverance Church of God,-76.923565,38.865301,12-11-23 18:43:23,osm,https://www.openstreetmap.org/node/358256190,0.7,None
True Way Deliverance Church,-76.925482,38.861733,12-11-23 18:43:23,osm,https://www.openstreetmap.org/node/358256192,0.7,None
Turner Memorial African Methodist Episcopal Church,-76.980831,38.979161,12-11-23 18:43:23,osm,https://www.openstreetmap.org/node/358256196,0.7,None
United Faith Church of God,-76.914948,38.884284,12-11-23 18:43:23,osm,https://www.openstreetmap.org/node/358256206,0.7,None
Mountain of Fire Miracles Ministries Church,-76.965371,38.934521,12-11-23 18:43:23,osm,https://www.openstreetmap.org/node/358256277,0.7,None
National Wesleyan Church,-76.987555,38.967315,12-11-23 18:43:23,osm,https://www.openstreetmap.org/node/358256281,0.7,None
New Creation Gospel Center,-76.991837,38.976753,12-11-23 18:43:23,osm,https://www.openstreetmap.org/node/358256288,0.7,None
New Dawn Baptist Church,-76.993301,38.961926,12-11-23 18:43:23,osm,https://www.openstreetmap.org/node/358256290,0.7,None
Progressive Church,-76.913532,38.802291,12-11-23 18:43:23,osm,https://www.openstreetmap.org/node/358256338,0.7,None
Redeemed Christian Church of God African Missions,-77.023707,38.989996,12-11-23 18:43:23,osm,https://www.openstreetmap.org/node/358256339,0.7,None
Refreshing Spring Church of God In Christ,-76.911519,38.961704,12-11-23 18:43:23,osm,https://www.openstreetmap.org/node/358256342,0.7,None
Rhema Christian Center Church,-76.979309,38.943813,12-11-23 18:43:23,osm,https://www.openstreetmap.org/node/358256347,0.7,None
Bladensburg Post Office,-76.933031,38.942037,12-11-23 18:43:23,osm,https://www.openstreetmap.org/node/358256410,0.7,None
Brentwood Post Office,-76.952118,38.940615,12-11-23 18:43:23,osm,https://www.openstreetmap.org/node/358256415,0.7,None
Capitol Heights Post Office,-76.9111,38.884372,12-11-23 18:43:23,osm,https://www.openstreetmap.org/node/358256420,0.7,None
Riverdale Post Office,-76.938528,38.966349,12-11-23 18:43:23,osm,https://www.openstreetmap.org/node/358256440,0.7,None
Beth El Preschool,-77.106754,38.993029,12-11-23 18:43:23,osm,https://www.openstreetmap.org/node/358256456,0.7,None
Chevy Chase United Methodist Church Preschool,-77.076687,38.979963,12-11-23 18:43:23,osm,https://www.openstreetmap.org/node/358256473,0.7,None
College Park Nursery School,-76.935062,38.981892,12-11-23 18:43:23,osm,https://www.openstreetmap.org/node/358256479,0.7,None
University Church Nursery School,-76.95145,38.984049,12-11-23 18:43:23,osm,https://www.openstreetmap.org/node/358256501,0.7,None
Saint Augustine School,-77.033327,38.918297,12-11-23 18:43:23,osm,https://www.openstreetmap.org/node/358954684,0.7,None
Bald Eagle Hill,-77.010198,38.821782,12-11-23 18:43:23,osm,https://www.openstreetmap.org/node/358954693,0.7,None
Barnard Hill Park,-76.970531,38.939555,12-11-23 18:43:23,osm,https://www.openstreetmap.org/node/358954698,0.7,None
Brentwood Village Playground,-76.982753,38.920389,12-11-23 18:43:23,osm,https://www.openstreetmap.org/node/358954707,0.7,None
Bryan School,-76.98692,38.887056,12-11-23 18:43:23,osm,https://www.openstreetmap.org/node/358954716,0.7,None
Bundy School,-77.017199,38.908723,12-11-23 18:43:23,osm,https://www.openstreetmap.org/node/358954721,0.7,None
Columbian School,-77.043588,38.922334,12-11-23 18:43:23,osm,https://www.openstreetmap.org/node/358954726,0.7,None
Dakota Playground,-76.961086,38.9215,12-11-23 18:43:23,osm,https://www.openstreetmap.org/node/358954740,0.7,None
Career Services and Student Success Center/Bookstore,-77.064258,38.943473,12-11-23 18:43:23,osm,https://www.openstreetmap.org/node/358954748,0.7,None
Douglass Jr High (former),-76.988487,38.855992,12-11-23 18:43:23,osm,https://www.openstreetmap.org/node/358954752,0.7,None
Edmonds School,-76.994013,38.894569,12-11-23 18:43:23,osm,https://www.openstreetmap.org/node/358954765,0.7,None
Evans Middle School,-76.919871,38.890141,12-11-23 18:43:23,osm,https://www.openstreetmap.org/node/358954774,0.7,None
Fort Davis Park,-76.949141,38.868446,12-11-23 18:43:23,osm,https://www.openstreetmap.org/node/358954787,0.7,None
Garnet - Patterson Junior High School,-77.0257,38.91765,12-11-23 18:43:23,osm,https://www.openstreetmap.org/node/358954811,0.7,None
Goose Island,-77.029977,38.808447,12-11-23 18:43:23,osm,https://www.openstreetmap.org/node/358954814,0.7,None
Hart Middle School,-76.99715,38.837562,12-11-23 18:43:23,osm,https://www.openstreetmap.org/node/358954836,0.7,None
Hayes School,-76.99921,38.902738,12-11-23 18:43:23,osm,https://www.openstreetmap.org/node/358954843,0.7,None
Hickey Hill,-76.957197,38.912612,12-11-23 18:43:23,osm,https://www.openstreetmap.org/node/358954846,0.7,None
Hoover Hill,-76.970531,38.938722,12-11-23 18:43:23,osm,https://www.openstreetmap.org/node/358954864,0.7,None
Military Road School,-77.032312,38.962176,12-11-23 18:43:23,osm,https://www.openstreetmap.org/node/358954908,0.7,None
Morse School,-77.018032,38.912334,12-11-23 18:43:23,osm,https://www.openstreetmap.org/node/358954913,0.7,None
Mount Hamilton,-76.975253,38.908723,12-11-23 18:43:23,osm,https://www.openstreetmap.org/node/358954915,0.7,None
National Trade and Professional School,-76.928585,38.896501,12-11-23 18:43:23,osm,https://www.openstreetmap.org/node/358954917,0.7,None
Our Lady Queen of Peace School,-76.94778,38.88323,12-11-23 18:43:23,osm,https://www.openstreetmap.org/node/358954927,0.7,None
Sacred Heart Seminary,-76.993185,38.948457,12-11-23 18:43:23,osm,https://www.openstreetmap.org/node/358954953,0.7,None
Saint Francis Xavier School,-76.968629,38.873149,12-11-23 18:43:23,osm,https://www.openstreetmap.org/node/358954970,0.7,None
Saint Gabriel School,-77.02081,38.94363,12-11-23 18:43:23,osm,https://www.openstreetmap.org/node/358954974,0.7,None
Saint Vincents Home and School,-76.99692,38.923167,12-11-23 18:43:23,osm,https://www.openstreetmap.org/node/358955002,0.7,None
Sheridan School,-77.07037,38.94678,12-11-23 18:43:23,osm,https://www.openstreetmap.org/node/358955008,0.7,None
Sousa Middle School,-76.95315,38.88395,12-11-23 18:43:23,osm,https://www.openstreetmap.org/node/358955013,0.7,None
Perry Street Prep,-76.978609,38.936914,12-11-23 18:43:23,osm,https://www.openstreetmap.org/node/358955015,0.7,None
Theological College,-76.998448,38.931299,12-11-23 18:43:23,osm,https://www.openstreetmap.org/node/358955022,0.7,None
Watts Branch Parkway,-76.927474,38.897612,12-11-23 18:43:23,osm,https://www.openstreetmap.org/node/358955030,0.7,None
Arts of Peace: Aspiration and Literature,-77.052179,38.889791,12-11-23 18:43:23,osm,https://www.openstreetmap.org/node/358955053,0.7,None
American Legion Freedom Bell,-77.006533,38.896567,12-11-23 18:43:23,osm,https://www.openstreetmap.org/node/358955061,0.7,None
General Jose de San Martin Memorial,-77.045241,38.895006,12-11-23 18:43:23,osm,https://www.openstreetmap.org/node/358955106,0.7,None
Daniel Webster Memorial,-77.037306,38.907247,12-11-23 18:43:23,osm,https://www.openstreetmap.org/node/358955126,0.7,None
Lieutenant General Winfield Brevet Scott Statue,-77.036526,38.907243,12-11-23 18:43:23,osm,https://www.openstreetmap.org/node/358955128,0.7,None
Hahnemann Monument,-77.035702,38.907246,12-11-23 18:43:23,osm,https://www.openstreetmap.org/node/358955131,0.7,None
Major General George Thomas Statue,-77.031954,38.905661,12-11-23 18:43:23,osm,https://www.openstreetmap.org/node/358955138,0.7,None
Sheridan Statue,-77.047755,38.912056,12-11-23 18:43:23,osm,https://www.openstreetmap.org/node/358955142,0.7,None
Peter Square,-77.0622,38.902889,12-11-23 18:43:23,osm,https://www.openstreetmap.org/node/358955144,0.7,None
Mule Hospital,-77.059422,38.903445,12-11-23 18:43:23,osm,https://www.openstreetmap.org/node/358955146,0.7,None
Arts of War: Valor,-77.052006,38.88846,12-11-23 18:43:23,osm,https://www.openstreetmap.org/node/358955151,0.7,None
Homeopathic Hospital,-77.014143,38.905945,12-11-23 18:43:23,osm,https://www.openstreetmap.org/node/358955181,0.7,None
WOOK,-77.003986,38.954873,12-11-23 18:43:23,osm,https://www.openstreetmap.org/node/358955196,0.7,None
WRC,-77.054977,38.924,12-11-23 18:43:23,osm,https://www.openstreetmap.org/node/358955198,0.7,None
WTTG-TV,-77.082601,38.956229,12-11-23 18:43:23,osm,https://www.openstreetmap.org/node/358955203,0.7,None
Bernardo de Galvez,-77.048565,38.895687,12-11-23 18:43:23,osm,https://www.openstreetmap.org/node/358955217,0.7,None
Integrated Design Electronics Academy Public Charter School,-76.93706,38.90422,12-11-23 18:43:23,osm,https://www.openstreetmap.org/node/358955222,0.7,None
Horace Mann Elementary School,-77.087824,38.934156,12-11-23 18:43:23,osm,https://www.openstreetmap.org/node/358955237,0.7,None
Palisades Park,-77.095534,38.925944,12-11-23 18:43:23,osm,https://www.openstreetmap.org/node/358955251,0.7,None
Catholic Sisters College,-76.994976,38.943167,12-11-23 18:43:23,osm,https://www.openstreetmap.org/node/358955310,0.7,None
Anacostia Park Section F,-76.969142,38.894556,12-11-23 18:43:23,osm,https://www.openstreetmap.org/node/358955332,0.7,None
Good Hope Hill,-76.962475,38.86789,12-11-23 18:43:23,osm,https://www.openstreetmap.org/node/358955366,0.7,None
Noyes Playground,-76.991642,38.924834,12-11-23 18:43:23,osm,https://www.openstreetmap.org/node/358955383,0.7,None
Saint Johns Cemetery,-77.028866,38.912611,12-11-23 18:43:23,osm,https://www.openstreetmap.org/node/358955413,0.7,None
Fletcher Johnson Education Complex,-76.93366,38.88402,12-11-23 18:43:23,osm,https://www.openstreetmap.org/node/358955508,0.7,None
Lieutenant Joseph P Kennedy Junior Institute,-76.994055,38.945637,12-11-23 18:43:23,osm,https://www.openstreetmap.org/node/358955539,0.7,None
Lincoln Middle School,-77.035532,38.929169,12-11-23 18:43:23,osm,https://www.openstreetmap.org/node/358955544,0.7,None
MC Terrell/McGogney Elementary School,-76.994644,38.841382,12-11-23 18:43:23,osm,https://www.openstreetmap.org/node/358955549,0.7,None
Margaret Washington Senior High School,-77.01027,38.90889,12-11-23 18:43:23,osm,https://www.openstreetmap.org/node/358955554,0.7,None
McGogney Elementary School,-76.992774,38.840134,12-11-23 18:43:23,osm,https://www.openstreetmap.org/node/358955573,0.7,None
Penn Center,-77.001656,38.912877,12-11-23 18:43:23,osm,https://www.openstreetmap.org/node/358955585,0.7,None
SMART Program Adult Education Center,-76.985253,38.888168,12-11-23 18:43:23,osm,https://www.openstreetmap.org/node/358955596,0.7,None
Senate Page School,-77.001015,38.893794,12-11-23 18:43:23,osm,https://www.openstreetmap.org/node/358955603,0.7,None
Inspired Teaching Demonstration School at Shaed Elementary,-77.002718,38.923686,12-11-23 18:43:23,osm,https://www.openstreetmap.org/node/358955607,0.7,None
Sharpe Health School,-77.030339,38.943489,12-11-23 18:43:23,osm,https://www.openstreetmap.org/node/358955612,0.7,None
Thomson Elementary School,-77.028416,38.903517,12-11-23 18:43:23,osm,https://www.openstreetmap.org/node/358955628,0.7,None
Piney Branch Park,-77.041366,38.9365,12-11-23 18:43:23,osm,https://www.openstreetmap.org/node/358955673,0.7,None
Jane A Delano and the Nurses Who Died in Service in World War I,-77.040784,38.894942,12-11-23 18:43:23,osm,https://www.openstreetmap.org/node/358955682,0.7,None
Jackson Hill,-77.046922,38.924833,12-11-23 18:43:23,osm,https://www.openstreetmap.org/node/358955689,0.7,None
Anacostia High School,-76.98298,38.86987,12-11-23 18:43:23,osm,https://www.openstreetmap.org/node/358955711,0.7,None
Banneker High School,-77.02388,38.92358,12-11-23 18:43:23,osm,https://www.openstreetmap.org/node/358955724,0.7,None
Benning Elementary School,-76.944828,38.890701,12-11-23 18:43:23,osm,https://www.openstreetmap.org/node/358955730,0.7,None
Blow Elementary School,-76.976111,38.897745,12-11-23 18:43:23,osm,https://www.openstreetmap.org/node/358955737,0.7,None
Buchanan Secondary Learning Center (historical),-76.987472,38.883237,12-11-23 18:43:23,osm,https://www.openstreetmap.org/node/358955746,0.7,None
Burrville Elementary School,-76.9241,38.90037,12-11-23 18:43:23,osm,https://www.openstreetmap.org/node/358955754,0.7,None
John F Cook Elementary School,-77.01029,38.90935,12-11-23 18:43:23,osm,https://www.openstreetmap.org/node/358955759,0.7,None
Garfield Elementary School,-76.970337,38.85168,12-11-23 18:43:23,osm,https://www.openstreetmap.org/node/358955779,0.7,None
Harris Elementary School,-76.925875,38.883635,12-11-23 18:43:23,osm,https://www.openstreetmap.org/node/358955791,0.7,None
Kenilworth Elementary School,-76.940656,38.907943,12-11-23 18:43:23,osm,https://www.openstreetmap.org/node/358955798,0.7,None
Ketcham Elementary School,-76.98387,38.866,12-11-23 18:43:23,osm,https://www.openstreetmap.org/node/358955802,0.7,None
Langdon Elementary School,-76.97685,38.92472,12-11-23 18:43:23,osm,https://www.openstreetmap.org/node/358955813,0.7,None
Nalle Elementary School,-76.931025,38.885989,12-11-23 18:43:23,osm,https://www.openstreetmap.org/node/358955847,0.7,None
Patterson Elementary School,-77.008156,38.826692,12-11-23 18:43:23,osm,https://www.openstreetmap.org/node/358955868,0.7,None
Payne Cemetery,-76.933863,38.884557,12-11-23 18:43:23,osm,https://www.openstreetmap.org/node/358955874,0.7,None
Plummer Elementary School,-76.939881,38.886986,12-11-23 18:43:23,osm,https://www.openstreetmap.org/node/358955885,0.7,None
Randle Highlands Elementary,-76.96441,38.87024,12-11-23 18:43:23,osm,https://www.openstreetmap.org/node/358955890,0.7,None
Richardson Elementary School,-76.925113,38.891962,12-11-23 18:43:23,osm,https://www.openstreetmap.org/node/358955896,0.7,None
Shadd Elementary School,-76.921304,38.889442,12-11-23 18:43:23,osm,https://www.openstreetmap.org/node/358955901,0.7,None
Simon Elementary School,-76.999937,38.836098,12-11-23 18:43:23,osm,https://www.openstreetmap.org/node/358955906,0.7,None
Webb Elementary School,-76.981293,38.907985,12-11-23 18:43:23,osm,https://www.openstreetmap.org/node/358955964,0.7,None
Wheatley Education Campus,-76.98865,38.90397,12-11-23 18:43:23,osm,https://www.openstreetmap.org/node/358955968,0.7,None
Woodridge Elementary School,-76.966086,38.929556,12-11-23 18:43:23,osm,https://www.openstreetmap.org/node/358955976,0.7,None
56 Signers of the Declaration of Independence Memorial,-77.042869,38.891088,12-11-23 18:43:23,osm,https://www.openstreetmap.org/node/358955985,0.7,None
Klingle Valley Park,-77.058007,38.932191,12-11-23 18:43:23,osm,https://www.openstreetmap.org/node/358955991,0.7,None
Medlink Hospital and Nursing Center,-76.995515,38.89236,12-11-23 18:43:23,osm,https://www.openstreetmap.org/node/358955997,0.7,None
Sacred Heart Academy,-77.036847,38.932554,12-11-23 18:43:23,osm,https://www.openstreetmap.org/node/358956027,0.7,None
District of Columbia Teachers College,-77.027755,38.9265,12-11-23 18:43:23,osm,https://www.openstreetmap.org/node/358956087,0.7,None
Anacostia Methodist Church,-76.98581,38.865667,12-11-23 18:43:23,osm,https://www.openstreetmap.org/node/358956125,0.7,None
Annunciation Catholic Church,-77.076367,38.930111,12-11-23 18:43:23,osm,https://www.openstreetmap.org/node/358956130,0.7,None
Bethany Baptist Church,-77.014976,38.915112,12-11-23 18:43:23,osm,https://www.openstreetmap.org/node/358956175,0.7,None
Bible Presbyterian Church,-77.061089,38.910389,12-11-23 18:43:23,osm,https://www.openstreetmap.org/node/358956179,0.7,None
Bishop Asbury Statue,-77.036712,38.927691,12-11-23 18:43:23,osm,https://www.openstreetmap.org/node/358956183,0.7,None
Brookland Methodist Church,-76.986642,38.932056,12-11-23 18:43:23,osm,https://www.openstreetmap.org/node/358956198,0.7,None
Ezras Israel Temple,-76.994698,38.901501,12-11-23 18:43:23,osm,https://www.openstreetmap.org/node/358956294,0.7,None
First Brethren Church,-76.990533,38.882987,12-11-23 18:43:23,osm,https://www.openstreetmap.org/node/358956317,0.7,None
Fountain Memorial Baptist Church,-76.974148,38.871229,12-11-23 18:43:23,osm,https://www.openstreetmap.org/node/358956338,0.7,None
Garden Memorial Presbyterian Church,-76.980084,38.869064,12-11-23 18:43:23,osm,https://www.openstreetmap.org/node/358956350,0.7,None
General Scott Statue,-77.013127,38.937957,12-11-23 18:43:23,osm,https://www.openstreetmap.org/node/358956355,0.7,None
Grace Baptist Church,-76.993314,38.884279,12-11-23 18:43:23,osm,https://www.openstreetmap.org/node/358956375,0.7,None
Holy Comforter Catholic Church,-76.986087,38.889556,12-11-23 18:43:23,osm,https://www.openstreetmap.org/node/358956390,0.7,None
Holy Redeemer Catholic Church,-77.013865,38.905112,12-11-23 18:43:23,osm,https://www.openstreetmap.org/node/358956405,0.7,None
Immaculate Conception School,-77.02235,38.90746,12-11-23 18:43:23,osm,https://www.openstreetmap.org/node/358956434,0.7,None
Italian Baptist Church,-77.013865,38.906223,12-11-23 18:43:23,osm,https://www.openstreetmap.org/node/358956455,0.7,None
Martha Washington Seminary,-77.037755,38.936222,12-11-23 18:43:23,osm,https://www.openstreetmap.org/node/358956556,0.7,None
Metropolitan Baptist Church,-77.029143,38.912889,12-11-23 18:43:23,osm,https://www.openstreetmap.org/node/358956576,0.7,None
Mount Carmel Baptist Church,-77.014952,38.90168,12-11-23 18:43:23,osm,https://www.openstreetmap.org/node/358956611,0.7,None
New York Avenue Playground,-77.013482,38.906742,12-11-23 18:43:23,osm,https://www.openstreetmap.org/node/358956627,0.7,None
Pentagon Lagoon Yacht Basin,-77.048866,38.873168,12-11-23 18:43:23,osm,https://www.openstreetmap.org/node/358956668,0.7,None
Petworth Baptist Church,-77.021125,38.938996,12-11-23 18:43:23,osm,https://www.openstreetmap.org/node/358956682,0.7,None
Portiuncula Chapel,-76.985253,38.937889,12-11-23 18:43:23,osm,https://www.openstreetmap.org/node/358956699,0.7,None
Powell Recreation Center,-77.036057,38.930132,12-11-23 18:43:23,osm,https://www.openstreetmap.org/node/358956715,0.7,None
Saint Cyprians Catholic Church,-76.988593,38.88623,12-11-23 18:43:23,osm,https://www.openstreetmap.org/node/358956810,0.7,None
Saint Francis De Sales Catholic Church,-76.975418,38.928993,12-11-23 18:43:23,osm,https://www.openstreetmap.org/node/358956828,0.7,None
Saint Francis de Sales School,-76.97496,38.92867,12-11-23 18:43:23,osm,https://www.openstreetmap.org/node/358956839,0.7,None
Saint Patricks Chapel Episcopal Church,-77.084422,38.912056,12-11-23 18:43:23,osm,https://www.openstreetmap.org/node/358956928,0.7,None
Saint Stephens Catholic Church,-77.053033,38.903167,12-11-23 18:43:23,osm,https://www.openstreetmap.org/node/358956978,0.7,None
Second Baptist Church,-77.015532,38.900667,12-11-23 18:43:23,osm,https://www.openstreetmap.org/node/358957019,0.7,None
Second Baptist Church,-76.981364,38.889834,12-11-23 18:43:23,osm,https://www.openstreetmap.org/node/358957024,0.7,None
Sherwood Presbyterian Church,-76.97442,38.930111,12-11-23 18:43:23,osm,https://www.openstreetmap.org/node/358957035,0.7,None
Shiloh Baptist Church,-77.024421,38.909817,12-11-23 18:43:23,osm,https://www.openstreetmap.org/node/358957041,0.7,None
Southeast Hebrew Temple,-76.993995,38.883055,12-11-23 18:43:23,osm,https://www.openstreetmap.org/node/358957061,0.7,None
Union Methodist Church,-77.045255,38.900112,12-11-23 18:43:23,osm,https://www.openstreetmap.org/node/358957105,0.7,None
Wallace Memorial Presbyterian Church,-77.022199,38.938444,12-11-23 18:43:23,osm,https://www.openstreetmap.org/node/358957124,0.7,None
Wilson Memorial Methodist Church,-76.991365,38.963166,12-11-23 18:43:23,osm,https://www.openstreetmap.org/node/358957163,0.7,None
Wilson School,-77.039421,38.922611,12-11-23 18:43:23,osm,https://www.openstreetmap.org/node/358957169,0.7,None
Woodridge Pilgrim Church,-76.97192,38.925945,12-11-23 18:43:23,osm,https://www.openstreetmap.org/node/358957176,0.7,None
Eastern Methodist Cemetery (historical),-76.979975,38.883445,12-11-23 18:43:23,osm,https://www.openstreetmap.org/node/358957259,0.7,None
Georgetown Heights,-77.079144,38.914556,12-11-23 18:43:23,osm,https://www.openstreetmap.org/node/358957281,0.7,None
Peters Hill,-77.051211,38.894803,12-11-23 18:43:23,osm,https://www.openstreetmap.org/node/358957287,0.7,None
Linnean Hill,-77.049983,38.936205,12-11-23 18:43:23,osm,https://www.openstreetmap.org/node/358957305,0.7,None
Camp Hill,-77.066922,38.9215,12-11-23 18:43:23,osm,https://www.openstreetmap.org/node/358957347,0.7,None
Mount Zion United Methodist Church,-77.058311,38.908167,12-11-23 18:43:23,osm,https://www.openstreetmap.org/node/358957360,0.7,None
Church of the Epiphany,-77.030532,38.898723,12-11-23 18:43:23,osm,https://www.openstreetmap.org/node/358957371,0.7,None
Nineteenth Street Baptist Church,-77.036771,38.946851,12-11-23 18:43:23,osm,https://www.openstreetmap.org/node/358957376,0.7,None
Major General Nathanael Green Statue,-76.999516,38.893565,12-11-23 18:43:23,osm,https://www.openstreetmap.org/node/358957402,0.7,None
Infinity,-77.030036,38.890822,12-11-23 18:43:23,osm,https://www.openstreetmap.org/node/358957409,0.7,None
The Gwenfritz Sculpture,-77.03132,38.891204,12-11-23 18:43:23,osm,https://www.openstreetmap.org/node/358957412,0.7,None
Edmund Burke Statue,-77.027444,38.903885,12-11-23 18:43:23,osm,https://www.openstreetmap.org/node/358957417,0.7,None
Giant Anteater Sculpture,-77.04896,38.930306,12-11-23 18:43:23,osm,https://www.openstreetmap.org/node/358957429,0.7,None
Man Controlling Trade,-77.020631,38.892357,12-11-23 18:43:23,osm,https://www.openstreetmap.org/node/358957433,0.7,None
Captain Nathan Hale Sculpture,-77.024674,38.892354,12-11-23 18:43:23,osm,https://www.openstreetmap.org/node/358957441,0.7,None
Wrestling Bears Sculpture,-77.04581,38.929278,12-11-23 18:43:23,osm,https://www.openstreetmap.org/node/358957445,0.7,None
Kemeys Bear Cub Sculpture,-77.046366,38.929,12-11-23 18:43:23,osm,https://www.openstreetmap.org/node/358957449,0.7,None
John Witherspoon Statue,-77.041773,38.907153,12-11-23 18:43:23,osm,https://www.openstreetmap.org/node/358957454,0.7,None
Habitat,-77.047199,38.917334,12-11-23 18:43:23,osm,https://www.openstreetmap.org/node/358957470,0.7,None
Israel Metropolitan Christian Methodist Episcopal Church,-77.021088,38.939,12-11-23 18:43:23,osm,https://www.openstreetmap.org/node/358957478,0.7,None
Ceres Statue,-77.006148,38.897003,12-11-23 18:43:23,osm,https://www.openstreetmap.org/node/358957497,0.7,None
United States Reform School Farm,-76.952475,38.923722,12-11-23 18:43:23,osm,https://www.openstreetmap.org/node/358957519,0.7,None
Fishing Shore,-77.096923,38.911223,12-11-23 18:43:23,osm,https://www.openstreetmap.org/node/358957526,0.7,None
Sisters Public School,-77.011921,38.901778,12-11-23 18:43:23,osm,https://www.openstreetmap.org/node/358957631,0.7,None
East Capitol Community Center,-76.92239,38.889444,12-11-23 18:43:23,osm,https://www.openstreetmap.org/node/358957753,0.7,None
Fletcher-Johnson Recreation Center,-76.935807,38.886223,12-11-23 18:43:23,osm,https://www.openstreetmap.org/node/358957758,0.7,None
Mary Church Terrell Recreation Center,-76.994308,38.841488,12-11-23 18:43:23,osm,https://www.openstreetmap.org/node/358957770,0.7,None
Luther Place Memorial Church,-77.031643,38.906778,12-11-23 18:43:23,osm,https://www.openstreetmap.org/node/358957835,0.7,None
Methodist Protestant Church,-77.024143,38.896501,12-11-23 18:43:23,osm,https://www.openstreetmap.org/node/358957844,0.7,None
Saint Andrews Mission House,-77.030254,38.908167,12-11-23 18:43:23,osm,https://www.openstreetmap.org/node/358957862,0.7,None
Saint Theresas Catholic Church,-76.987483,38.866496,12-11-23 18:43:23,osm,https://www.openstreetmap.org/node/358957866,0.7,None
Mount Alto,-77.0747,38.923722,12-11-23 18:43:23,osm,https://www.openstreetmap.org/node/358957912,0.7,None
Glenwood Cemetery Chapel,-77.006773,38.920081,12-11-23 18:43:23,osm,https://www.openstreetmap.org/node/358957947,0.7,None
Taras Shevchenko Statue,-77.04896,38.910056,12-11-23 18:43:23,osm,https://www.openstreetmap.org/node/358957975,0.7,None
Martin Luther Statue,-77.031704,38.906575,12-11-23 18:43:23,osm,https://www.openstreetmap.org/node/358957984,0.7,None
Joan of Arc Memorial,-77.0357,38.9207,12-11-23 18:43:23,osm,https://www.openstreetmap.org/node/358957989,0.7,None
Serenity Statue,-77.036138,38.921965,12-11-23 18:43:23,osm,https://www.openstreetmap.org/node/358957994,0.7,None
Dante Statue,-77.034965,38.920212,12-11-23 18:43:23,osm,https://www.openstreetmap.org/node/358957998,0.7,None
James Buchanan Memorial,-77.034985,38.91965,12-11-23 18:43:23,osm,https://www.openstreetmap.org/node/358958001,0.7,None
Garth Fountain,-77.070515,38.930996,12-11-23 18:43:23,osm,https://www.openstreetmap.org/node/358958016,0.7,None
Prodigal Son Statue,-77.070581,38.929786,12-11-23 18:43:23,osm,https://www.openstreetmap.org/node/358958019,0.7,None
Penguin Fountain,-77.029694,38.974608,12-11-23 18:43:23,osm,https://www.openstreetmap.org/node/358958032,0.7,None
Doctor Benjamin Rush Statue,-77.050255,38.895945,12-11-23 18:43:23,osm,https://www.openstreetmap.org/node/358958037,0.7,None
Red Cross Men and Women Killed in Service,-77.040781,38.894699,12-11-23 18:43:23,osm,https://www.openstreetmap.org/node/358958055,0.7,None
Queen Isabella I Memorial,-77.039672,38.892856,12-11-23 18:43:23,osm,https://www.openstreetmap.org/node/358958085,0.7,None
Family Tree of Hope Sculpture,-77.041644,38.950944,12-11-23 18:43:23,osm,https://www.openstreetmap.org/node/358958089,0.7,None
James Cardinal Gibbons Statue,-77.0362,38.931399,12-11-23 18:43:23,osm,https://www.openstreetmap.org/node/358958094,0.7,None
Guglielmo Marconi Statue,-77.036749,38.930417,12-11-23 18:43:23,osm,https://www.openstreetmap.org/node/358958097,0.7,None
Saint Francis and the Turtledoves Statue,-76.985253,38.9365,12-11-23 18:43:23,osm,https://www.openstreetmap.org/node/358958140,0.7,None
Mount Saint Sepulchre,-76.984976,38.937611,12-11-23 18:43:23,osm,https://www.openstreetmap.org/node/358958152,0.7,None
Robert Emmet Statue,-77.052753,38.913865,12-11-23 18:43:23,osm,https://www.openstreetmap.org/node/358958166,0.7,None
Alexander Robey Shepherd Statue,-77.031637,38.895273,12-11-23 18:43:23,osm,https://www.openstreetmap.org/node/358958181,0.7,None
Commodore John Barry Statue,-77.031675,38.901923,12-11-23 18:43:23,osm,https://www.openstreetmap.org/node/358958185,0.7,None
Bragadier General James B McPherson Statue,-77.03331,38.901778,12-11-23 18:43:23,osm,https://www.openstreetmap.org/node/358958187,0.7,None
Statue of Winston Churchill,-77.061531,38.919818,12-11-23 18:43:23,osm,https://www.openstreetmap.org/node/358958190,0.7,None
English Renaissance Sculpture,-77.026158,38.894271,12-11-23 18:43:23,osm,https://www.openstreetmap.org/node/358958195,0.7,None
John Wesley Statue,-77.090277,38.939482,12-11-23 18:43:23,osm,https://www.openstreetmap.org/node/358958206,0.7,None
General Philip H. Sheridan Statue,-77.050661,38.912159,12-11-23 18:43:23,osm,https://www.openstreetmap.org/node/358958209,0.7,None
Orbit Sculpture,-77.061922,38.928722,12-11-23 18:43:23,osm,https://www.openstreetmap.org/node/358958211,0.7,None
Saint Christopher Statue,-76.986365,38.937333,12-11-23 18:43:23,osm,https://www.openstreetmap.org/node/358958214,0.7,None
Saint Bernadette Statue,-76.986326,38.9371,12-11-23 18:43:23,osm,https://www.openstreetmap.org/node/358958216,0.7,None
Saint Vincent De Paul Statue,-76.990531,38.943167,12-11-23 18:43:23,osm,https://www.openstreetmap.org/node/358958218,0.7,None
Thomas Hopkins Gallaudet Statue,-76.98942,38.906501,12-11-23 18:43:23,osm,https://www.openstreetmap.org/node/358958221,0.7,None
Saint Dominic Statue,-76.998309,38.932056,12-11-23 18:43:23,osm,https://www.openstreetmap.org/node/358958226,0.7,None
Father Godfrey Schilling Statue,-76.986087,38.937333,12-11-23 18:43:23,osm,https://www.openstreetmap.org/node/358958228,0.7,None
Benjamin Franklin Statue,-77.027846,38.894669,12-11-23 18:43:23,osm,https://www.openstreetmap.org/node/358958231,0.7,None
Citizen Heights Church,-77.081078,38.949021,12-11-23 18:43:23,osm,https://www.openstreetmap.org/node/358958240,0.7,None
Andrew Jackson Downing Urn,-77.025404,38.888395,12-11-23 18:43:23,osm,https://www.openstreetmap.org/node/358958267,0.7,None
Japanese Lantern,-77.041378,38.886583,12-11-23 18:43:23,osm,https://www.openstreetmap.org/node/358958274,0.7,None
Christian Science Reading Room,-77.036841,38.901923,12-11-23 18:43:23,osm,https://www.openstreetmap.org/node/358958281,0.7,None
Major General George B McClellan Statue,-77.046502,38.916688,12-11-23 18:43:23,osm,https://www.openstreetmap.org/node/358958285,0.7,None
Abraham Lincoln Statue,-77.017563,38.895036,12-11-23 18:43:23,osm,https://www.openstreetmap.org/node/358958288,0.7,None
Brigadier General Albert Pike Statue,-77.013865,38.894834,12-11-23 18:43:23,osm,https://www.openstreetmap.org/node/358958290,0.7,None
Bishop John Carroll,-77.072264,38.90761,12-11-23 18:43:23,osm,https://www.openstreetmap.org/node/358958324,0.7,None
Emory Methodist Church,-77.02831,38.958722,12-11-23 18:43:23,osm,https://www.openstreetmap.org/node/358958345,0.7,None
Dumbarton United Methodist Church,-77.062477,38.907889,12-11-23 18:43:23,osm,https://www.openstreetmap.org/node/358958364,0.7,None
Minute Man Statue,-77.009698,38.898167,12-11-23 18:43:23,osm,https://www.openstreetmap.org/node/358958369,0.7,None
